city,state,state_id,country,lat,lng,population
Toronto,Ontario,ON,CA,43.666667,-79.416667,5213000
Montréal,Québec,QC,CA,45.5,-73.583333,3678000
Vancouver,British Columbia,BC,CA,49.25,-123.133333,2313328
Ottawa,Ontario,ON,CA,45.416667,-75.7,1145000
Calgary,Alberta,AB,CA,51.083333,-114.083333,1110000
Edmonton,Alberta,AB,CA,53.55,-113.5,1058000
Hamilton,Ontario,ON,CA,43.256101,-79.857484,721053
Winnipeg,Manitoba,MB,CA,49.883333,-97.166667,632063
Québec,Québec,QC,CA,46.8,-71.25,624177
Oshawa,Ontario,ON,CA,43.9,-78.866667,450963
Kitchener,Ontario,ON,CA,43.446976,-80.472484,417001
Halifax,Nova Scotia,NS,CA,44.65,-63.6,359111
London,Ontario,ON,CA,42.983333,-81.25,346765
Windsor,Ontario,ON,CA,42.301649,-83.030744,319246
Victoria,British Columbia,BC,CA,48.450234,-123.343529,289625
Saskatoon,Saskatchewan,SK,CA,52.133333,-106.666667,198958
Barrie,Ontario,ON,CA,44.383333,-79.7,182041
Regina,Saskatchewan,SK,CA,50.45,-104.616667,176183
Sudbury,Ontario,ON,CA,46.5,-80.966667,157857
Abbotsford,British Columbia,BC,CA,49.05,-122.3,151683
Sarnia,Ontario,ON,CA,42.978417,-82.388177,144172
Sherbrooke,Québec,QC,CA,45.4,-71.9,139652
Saint John’s,Newfoundland and Labrador,NL,CA,47.55,-52.666667,131469
Kelowna,British Columbia,BC,CA,49.9,-119.483333,125109
Trois-Rivières,Québec,QC,CA,46.35,-72.55,119693
Kingston,Ontario,ON,CA,44.3,-76.566667,114195
Thunder Bay,Ontario,ON,CA,48.4,-89.233333,99334
Moncton,New Brunswick,NB,CA,46.09652,-64.79757,90635
Saint John,New Brunswick,NB,CA,45.230798,-66.095316,87857
Nanaimo,British Columbia,BC,CA,49.15,-123.916667,84905
Peterborough,Ontario,ON,CA,44.3,-78.333333,83627
Saint-Jérôme,Québec,QC,CA,45.766667,-74.0,78439
Red Deer,Alberta,AB,CA,52.266667,-113.8,74857
Lethbridge,Alberta,AB,CA,49.7,-112.833333,70617
Kamloops,British Columbia,BC,CA,50.666667,-120.333333,68714
Prince George,British Columbia,BC,CA,53.916667,-122.766667,65558
Medicine Hat,Alberta,AB,CA,50.033333,-110.683333,63138
Drummondville,Québec,QC,CA,45.883333,-72.483333,59489
Chicoutimi,Québec,QC,CA,48.45,-71.066667,53940
Fredericton,New Brunswick,NB,CA,45.910648,-66.658649,52337
Chilliwack,British Columbia,BC,CA,49.166667,-121.95,51942
North Bay,Ontario,ON,CA,46.3,-79.45,50170
Shawinigan-Sud,Québec,QC,CA,46.528557,-72.751453,49161
Cornwall,Ontario,ON,CA,45.016667,-74.733333,48821
Joliette,Québec,QC,CA,46.034,-73.441,45361
Belleville,Ontario,ON,CA,44.166667,-77.383333,43990
Charlottetown,Prince Edward Island,PE,CA,46.238225,-63.139481,42402
Victoriaville,Québec,QC,CA,46.063106,-71.958802,41500
Grande Prairie,Alberta,AB,CA,55.166667,-118.8,41462
Penticton,British Columbia,BC,CA,49.5,-119.583333,37721
Sydney,Nova Scotia,NS,CA,46.15,-60.166667,37538
Orillia,Ontario,ON,CA,44.6,-79.416667,37483
Rimouski,Québec,QC,CA,48.433333,-68.516667,35584
Timmins,Ontario,ON,CA,48.466667,-81.333333,34974
Prince Albert,Saskatchewan,SK,CA,53.2,-105.75,34609
Campbell River,British Columbia,BC,CA,50.016667,-125.25,33430
Courtenay,British Columbia,BC,CA,49.683333,-125.0,32793
Orangeville,Ontario,ON,CA,43.916366,-80.096671,32640
Moose Jaw,Saskatchewan,SK,CA,50.4,-105.55,32166
Brandon,Manitoba,MB,CA,49.833333,-99.95,28418
Brockville,Ontario,ON,CA,44.594958,-75.682133,26458
Saint-Georges,Québec,QC,CA,46.116667,-70.683333,26149
Sept-Îles,Québec,QC,CA,50.2,-66.383333,25686
Rouyn-Noranda,Québec,QC,CA,48.25,-79.016667,24602
Whitehorse,Yukon,YT,CA,60.716667,-135.05,23276
Owen Sound,Ontario,ON,CA,44.566667,-80.85,22625
Fort McMurray,Alberta,AB,CA,56.733333,-111.383333,21863
Corner Brook,Newfoundland and Labrador,NL,CA,48.95,-57.933333,20791
Val-d’Or,Québec,QC,CA,48.116667,-77.766667,20625
New Glasgow,Nova Scotia,NS,CA,45.583333,-62.633333,20322
Terrace,British Columbia,BC,CA,54.5,-128.583333,19443
North Battleford,Saskatchewan,SK,CA,52.766667,-108.283333,19440
Yellowknife,Northwest Territories,NT,CA,62.45,-114.35,19234
Fort Saint John,British Columbia,BC,CA,56.25,-120.833333,18776
Cranbrook,British Columbia,BC,CA,49.516667,-115.766667,18610
Edmundston,New Brunswick,NB,CA,47.36226,-68.327874,17894
Rivière-du-Loup,Québec,QC,CA,47.833333,-69.533333,16403
Camrose,Alberta,AB,CA,53.016667,-112.816667,15808
Pembroke,Ontario,ON,CA,45.816667,-77.116667,15551
Yorkton,Saskatchewan,SK,CA,51.216667,-102.466667,15172
Swift Current,Saskatchewan,SK,CA,50.283333,-107.766667,14906
Prince Rupert,British Columbia,BC,CA,54.316667,-130.333333,14708
Williams Lake,British Columbia,BC,CA,52.116667,-122.15,14168
Brooks,Alberta,AB,CA,50.566667,-111.9,14163
Quesnel,British Columbia,BC,CA,52.983333,-122.483333,13788
Thompson,Manitoba,MB,CA,55.75,-97.866667,13727
Dolbeau,Québec,QC,CA,48.866667,-72.233333,13337
Powell River,British Columbia,BC,CA,49.883333,-124.55,12779
Wetaskiwin,Alberta,AB,CA,52.966667,-113.383333,11823
Nelson,British Columbia,BC,CA,49.483333,-117.283333,11779
Mont-Laurier,Québec,QC,CA,46.55,-75.5,11642
Kenora,Ontario,ON,CA,49.766667,-94.466667,10852
Dawson Creek,British Columbia,BC,CA,55.766667,-120.233333,10802
Amos,Québec,QC,CA,48.566667,-78.116667,10516
Baie-Comeau,Québec,QC,CA,49.216667,-68.15,10435
Hinton,Alberta,AB,CA,53.4,-117.583333,10265
Selkirk,Manitoba,MB,CA,50.15,-96.883333,9986
Steinbach,Manitoba,MB,CA,49.516667,-96.683333,9729
Weyburn,Saskatchewan,SK,CA,49.666667,-103.85,9362
Amherst,Nova Scotia,NS,CA,45.830019,-64.210024,9336
Kapuskasing,Ontario,ON,CA,49.416667,-82.433333,9240
Dauphin,Manitoba,MB,CA,51.15,-100.05,9077
Dryden,Ontario,ON,CA,49.783333,-92.833333,7862
Revelstoke,British Columbia,BC,CA,51.0,-118.183333,7668
Happy Valley,Newfoundland and Labrador,NL,CA,53.3,-60.3,7572
Banff,Alberta,AB,CA,51.166667,-115.566667,7502
Yarmouth,Nova Scotia,NS,CA,43.833965,-66.113926,7500
La Sarre,Québec,QC,CA,48.8,-79.2,7206
Parry Sound,Ontario,ON,CA,45.333333,-80.033333,7105
Stephenville,Newfoundland and Labrador,NL,CA,48.55,-58.566667,7054
Antigonish,Nova Scotia,NS,CA,45.616667,-61.966667,6739
Flin Flon,Manitoba,MB,CA,54.766667,-101.883333,6393
Fort Nelson,British Columbia,BC,CA,58.816667,-122.533333,6315
Smithers,British Columbia,BC,CA,54.766667,-127.166667,6245
Iqaluit,Nunavut,NU,CA,63.733333,-68.5,6124
Bathurst,New Brunswick,NB,CA,47.558376,-65.656517,6111
The Pas,Manitoba,MB,CA,53.816667,-101.233333,6055
Norway House,Manitoba,MB,CA,53.966667,-97.833333,6000
Meadow Lake,Saskatchewan,SK,CA,54.129722,-108.434722,5882
Vegreville,Alberta,AB,CA,53.5,-112.05,5813
Stettler,Alberta,AB,CA,52.333333,-112.683333,5494
Peace River,Alberta,AB,CA,56.233333,-117.283333,5340
New Liskeard,Ontario,ON,CA,47.5,-79.666667,5203
Hearst,Ontario,ON,CA,49.7,-83.666667,5043
Creston,British Columbia,BC,CA,49.1,-116.516667,4816
Marathon,Ontario,ON,CA,48.75,-86.366667,4627
Cochrane,Ontario,ON,CA,49.066667,-81.016667,4441
Kindersley,Saskatchewan,SK,CA,51.466667,-109.133333,4383
Liverpool,Nova Scotia,NS,CA,44.038414,-64.718433,4331
Melville,Saskatchewan,SK,CA,50.933333,-102.8,4279
Channel-Port aux Basques,Newfoundland and Labrador,NL,CA,47.566667,-59.15,4220
Deer Lake,Newfoundland and Labrador,NL,CA,49.183333,-57.433333,4163
Saint-Augustin,Québec,QC,CA,51.233333,-58.65,3961
Digby,Nova Scotia,NS,CA,44.578466,-65.783525,3949
Jasper,Alberta,AB,CA,52.883333,-118.083333,3907
Hay River,Northwest Territories,NT,CA,60.85,-115.7,3900
Windsor,Nova Scotia,NS,CA,44.958995,-64.144786,3864
La Ronge,Saskatchewan,SK,CA,55.1,-105.3,3783
Deer Lake,Ontario,ON,CA,52.616667,-94.066667,3743
Gaspé,Québec,QC,CA,48.833333,-64.483333,3677
Atikokan,Ontario,ON,CA,48.75,-91.616667,3625
Gander,Newfoundland and Labrador,NL,CA,48.95,-54.55,3345
Fort Chipewyan,Alberta,AB,CA,58.716667,-111.15,3222
Shelburne,Nova Scotia,NS,CA,43.753356,-65.246074,3167
Inuvik,Northwest Territories,NT,CA,68.35,-133.7,3022
Lac La Biche,Alberta,AB,CA,54.771944,-111.964722,2986
Lillooet,British Columbia,BC,CA,50.683333,-121.933333,2893
Chapleau,Ontario,ON,CA,47.833333,-83.4,2663
Burns Lake,British Columbia,BC,CA,54.216667,-125.766667,2635
Gimli,Manitoba,MB,CA,50.633333,-97.0,2623
Athabasca,Alberta,AB,CA,54.716667,-113.266667,2539
Nelson House,Manitoba,MB,CA,55.8,-98.85,2500
Rankin Inlet,Nunavut,NU,CA,62.816667,-92.083333,2472
Port Hardy,British Columbia,BC,CA,50.716667,-127.5,2295
Biggar,Saskatchewan,SK,CA,52.05,-107.983333,2192
Wiarton,Ontario,ON,CA,44.733333,-81.133333,2182
Wawa,Ontario,ON,CA,47.99473,-84.77002,2174
Hudson Bay,Saskatchewan,SK,CA,52.85,-102.383333,2157
Matagami,Québec,QC,CA,49.75,-77.633333,1966
Arviat,Nunavut,NU,CA,61.116667,-94.05,1868
Attawapiskat,Ontario,ON,CA,52.916667,-82.433333,1802
Red Lake,Ontario,ON,CA,51.033333,-93.833333,1765
Moosonee,Ontario,ON,CA,51.266667,-80.65,1725
Tofino,British Columbia,BC,CA,49.133333,-125.9,1655
Igloolik,Nunavut,NU,CA,69.4,-81.8,1612
Inukjuak,Québec,QC,CA,58.45334,-78.102493,1597
Little Current,Ontario,ON,CA,45.966667,-81.933333,1595
Baker Lake,Nunavut,NU,CA,64.316667,-96.016667,1584
Pond Inlet,Nunavut,NU,CA,72.7,-78.0,1549
Cap-Chat,Québec,QC,CA,49.083333,-66.683333,1484
Cambridge Bay,Nunavut,NU,CA,69.116667,-105.033333,1477
Thessalon,Ontario,ON,CA,46.25,-83.55,1464
New Bella Bella,British Columbia,BC,CA,52.166667,-128.133333,1400
Cobalt,Ontario,ON,CA,47.383333,-79.683333,1372
Cape Dorset,Nunavut,NU,CA,64.233333,-76.55,1326
Pangnirtung,Nunavut,NU,CA,66.133333,-65.75,1320
West Dawson,Yukon,YT,CA,64.066667,-139.45,1319
Kugluktuk,Nunavut,NU,CA,67.833333,-115.083333,1302
Geraldton,Ontario,ON,CA,49.716667,-86.966667,1290
Gillam,Manitoba,MB,CA,56.35,-94.7,1281
Kuujjuaq,Québec,QC,CA,58.1,-68.4,1273
Lake Louise,Alberta,AB,CA,51.433333,-116.183333,1248
Nipigon,Ontario,ON,CA,49.016667,-88.25,1204
Nain,Newfoundland and Labrador,NL,CA,56.55,-61.683333,1151
Gjoa Haven,Nunavut,NU,CA,68.633333,-95.916667,1109
Fort McPherson,Northwest Territories,NT,CA,67.433333,-134.866667,1069
Argentia,Newfoundland and Labrador,NL,CA,47.3,-54.0,1063
Norman Wells,Northwest Territories,NT,CA,65.283333,-126.85,1027
Churchill,Manitoba,MB,CA,58.766667,-94.166667,1000
Repulse Bay,Nunavut,NU,CA,66.516667,-86.233333,1000
Tuktoyaktuk,Northwest Territories,NT,CA,69.45,-133.066667,929
Berens River,Manitoba,MB,CA,52.366667,-97.033333,892
Shamattawa,Manitoba,MB,CA,55.85,-92.083333,870
Baddeck,Nova Scotia,NS,CA,46.1,-60.75,852
Coral Harbour,Nunavut,NU,CA,64.133333,-83.166667,834
La Scie,Newfoundland and Labrador,NL,CA,49.966667,-55.583333,817
Watson Lake,Yukon,YT,CA,60.116667,-128.8,802
Taloyoak,Nunavut,NU,CA,69.533333,-93.533333,774
Natashquan,Québec,QC,CA,50.183333,-61.816667,722
Buchans,Newfoundland and Labrador,NL,CA,48.816667,-56.866667,685
Hall Beach,Nunavut,NU,CA,68.766667,-81.2,654
Arctic Bay,Nunavut,NU,CA,73.033333,-85.166667,604
Fort Good Hope,Northwest Territories,NT,CA,66.266667,-128.633333,597
Mingan,Québec,QC,CA,50.3,-64.016667,588
Kangirsuk,Québec,QC,CA,60.016667,-70.033333,549
Sandspit,British Columbia,BC,CA,53.239111,-131.818769,538
Délįne,Northwest Territories,NT,CA,65.183333,-123.416667,525
Fort Smith,Northwest Territories,NT,CA,60.0,-111.883333,518
Cartwright,Newfoundland and Labrador,NL,CA,53.7,-57.016667,505
Holman,Northwest Territories,NT,CA,70.733333,-117.75,500
Lynn Lake,Manitoba,MB,CA,56.85,-101.05,482
Schefferville,Québec,QC,CA,54.8,-66.816667,471
Trout River,Newfoundland and Labrador,NL,CA,49.483333,-58.116667,452
Forteau Bay,Newfoundland and Labrador,NL,CA,51.45,-56.95,448
Fort Resolution,Northwest Territories,NT,CA,61.166667,-113.683333,448
Hopedale,Newfoundland and Labrador,NL,CA,55.45,-60.216667,442
Pukatawagan,Manitoba,MB,CA,55.733333,-101.316667,431
Trepassey,Newfoundland and Labrador,NL,CA,46.733333,-53.366667,398
Kimmirut,Nunavut,NU,CA,62.85,-69.883333,385
Chesterfield Inlet,Nunavut,NU,CA,63.333333,-90.7,374
Eastmain,Québec,QC,CA,52.233333,-78.516667,335
Dease Lake,British Columbia,BC,CA,58.476697,-129.96146,303
Paulatuk,Northwest Territories,NT,CA,69.383333,-123.983333,294
Fort Simpson,Northwest Territories,NT,CA,61.85,-121.333333,283
Brochet,Manitoba,MB,CA,57.883333,-101.666667,278
Cat Lake,Ontario,ON,CA,51.716667,-91.8,277
Radisson,Québec,QC,CA,53.783333,-77.616667,270
Port-Menier,Québec,QC,CA,49.816667,-64.35,263
Resolute,Nunavut,NU,CA,74.683333,-94.9,250
Saint Anthony,Newfoundland and Labrador,NL,CA,51.383333,-55.6,224
Port Hope Simpson,Newfoundland and Labrador,NL,CA,52.533333,-56.3,197
Oxford House,Manitoba,MB,CA,54.95,-95.266667,184
Tsiigehtchic,Northwest Territories,NT,CA,67.433333,-133.75,175
Ivujivik,Québec,QC,CA,62.416667,-77.9,156
Stony Rapids,Saskatchewan,SK,CA,59.266667,-105.833333,152
Alert,Nunavut,NU,CA,82.483333,-62.25,125
Fort Severn,Ontario,ON,CA,55.983333,-87.65,125
Rigolet,Newfoundland and Labrador,NL,CA,54.166667,-58.433333,124
Lansdowne House,Ontario,ON,CA,52.216667,-87.883333,120
Salluit,Québec,QC,CA,62.2,-75.633333,106
Łutselk’e,Northwest Territories,NT,CA,62.4,-110.733333,102
Uranium City,Saskatchewan,SK,CA,59.566667,-108.616667,89
Burwash Landing,Yukon,YT,CA,61.35,-139.0,73
Grise Fiord,Nunavut,NU,CA,76.416667,-82.95,23
Big Beaverhouse,Ontario,ON,CA,52.95,-89.883333,10
Island Lake,Manitoba,MB,CA,53.966667,-94.766667,10
Ennadai,Nunavut,NU,CA,61.133333,-100.883333,0
Vernon,Texas,TX,US,34.148,-99.3,9941
city,state,,US,lat,lng,population
South Creek,Washington,WA,US,46.9994,-122.3921,2500
Roslyn,Washington,WA,US,47.2507,-121.0989,947
Sprague,Washington,WA,US,47.3048,-117.9713,441
Gig Harbor,Washington,WA,US,47.3352,-122.5968,9507
Lake Cassidy,Washington,WA,US,48.0639,-122.092,3591
Tenino,Washington,WA,US,46.8537,-122.8607,1830
Jamestown,Washington,WA,US,48.1229,-123.0911,289
Three Lakes,Washington,WA,US,47.942,-121.9924,3390
Curlew Lake,Washington,WA,US,48.7311,-118.6663,573
Chain Lake,Washington,WA,US,47.9038,-121.9861,4280
Pateros,Washington,WA,US,48.0536,-119.8994,701
Rosburg,Washington,WA,US,46.3076,-123.6344,385
Parkland,Washington,WA,US,47.1417,-122.4376,37019
Birch Bay,Washington,WA,US,48.923,-122.7543,8642
Ashford,Washington,WA,US,46.7537,-122.0113,162
Navy Yard City,Washington,WA,US,47.5508,-122.6655,3154
Omak,Washington,WA,US,48.4228,-119.5159,8130
Farmington,Washington,WA,US,47.0887,-117.0464,154
Buckley,Washington,WA,US,47.1615,-122.02,4819
Cathcart,Washington,WA,US,47.8525,-122.1058,2506
Poulsbo,Washington,WA,US,47.7417,-122.6408,10670
Anacortes,Washington,WA,US,48.4878,-122.6292,17955
Maplewood,Washington,WA,US,47.3715,-122.5689,5340
Creston,Washington,WA,US,47.7595,-118.52,226
Rockford,Washington,WA,US,47.4513,-117.1307,477
Wishram,Washington,WA,US,45.6599,-120.9698,438
Centralia,Washington,WA,US,46.7225,-122.9695,41643
South Hill,Washington,WA,US,47.1203,-122.2848,56379
Longview Heights,Washington,WA,US,46.1796,-122.9577,3678
Erlands Point-Kitsap Lake,Washington,WA,US,47.5973,-122.7021,2973
Amboy,Washington,WA,US,45.9122,-122.4795,2027
St. John,Washington,WA,US,47.0915,-117.5887,561
Dallesport,Washington,WA,US,45.6316,-121.1749,1739
Ketron Island,Washington,WA,US,47.1569,-122.6343,0
Mesa,Washington,WA,US,46.5737,-119.0013,503
Fife,Washington,WA,US,47.2328,-122.3518,10154
Moses Lake North,Washington,WA,US,47.1949,-119.3186,3787
Chewelah,Washington,WA,US,48.2929,-117.7336,2637
Grayland,Washington,WA,US,46.8304,-124.0898,756
Kittitas,Washington,WA,US,46.9837,-120.4191,1491
Camano,Washington,WA,US,48.1865,-122.4708,15989
Monroe North,Washington,WA,US,47.883,-121.9882,1704
North Bonneville,Washington,WA,US,45.6425,-121.9689,999
Klickitat,Washington,WA,US,45.818,-121.1626,358
Loon Lake,Washington,WA,US,48.0685,-117.6298,784
Newport,Washington,WA,US,48.1788,-117.0545,2635
Mead,Washington,WA,US,47.7795,-117.35,6859
Cashmere,Washington,WA,US,47.5175,-120.4671,4864
Aberdeen Gardens,Washington,WA,US,47.0587,-123.7791,283
Ocean Shores,Washington,WA,US,46.9685,-124.1521,5553
Basin City,Washington,WA,US,46.5891,-119.1567,1281
Wilkeson,Washington,WA,US,47.1034,-122.0495,507
Meadow Glade,Washington,WA,US,45.7524,-122.5614,2895
Arlington Heights,Washington,WA,US,48.2119,-122.063,2826
Uniontown,Washington,WA,US,46.5391,-117.0861,343
Oakesdale,Washington,WA,US,47.1305,-117.2465,442
West Side Highway,Washington,WA,US,46.1841,-122.9178,5902
Conconully,Washington,WA,US,48.5571,-119.7513,208
Latah,Washington,WA,US,47.2822,-117.1557,187
Elma,Washington,WA,US,47.0055,-123.4112,3092
Tieton,Washington,WA,US,46.7026,-120.756,1294
Southworth,Washington,WA,US,47.5126,-122.5298,2280
Danville,Washington,WA,US,48.9938,-118.5068,19
Toppenish,Washington,WA,US,46.3807,-120.3125,14441
River Road,Washington,WA,US,48.0677,-123.1276,952
Geneva,Washington,WA,US,48.7461,-122.4064,2632
Yakima,Washington,WA,US,46.5923,-120.5496,133233
Moxee,Washington,WA,US,46.5638,-120.3968,4032
Edmonds,Washington,WA,US,47.8114,-122.3533,42209
Kalama,Washington,WA,US,46.0171,-122.8393,3794
Laurier,Washington,WA,US,48.9974,-118.2248,0
Vashon,Washington,WA,US,47.4122,-122.4726,9635
Country Homes,Washington,WA,US,47.7478,-117.4197,5730
Darrington,Washington,WA,US,48.2546,-121.6029,1406
Metaline Falls,Washington,WA,US,48.8616,-117.3706,245
Lyle,Washington,WA,US,45.6956,-121.2805,548
Cascade Valley,Washington,WA,US,47.1371,-119.3272,1797
Spangle,Washington,WA,US,47.4299,-117.3812,307
Methow,Washington,WA,US,48.1289,-120.0056,78
Waterville,Washington,WA,US,47.648,-120.0707,1198
Lake Roesiger,Washington,WA,US,47.9839,-121.9129,657
Milton,Washington,WA,US,47.2522,-122.3154,8230
Krupp,Washington,WA,US,47.4105,-118.9886,50
Alderton,Washington,WA,US,47.1718,-122.2192,3303
DuPont,Washington,WA,US,47.1079,-122.6496,9487
Edgewood,Washington,WA,US,47.2309,-122.2832,11213
North Puyallup,Washington,WA,US,47.2015,-122.2742,1848
Pacific Beach,Washington,WA,US,47.215,-124.1967,538
Manson,Washington,WA,US,47.8858,-120.1563,1532
Brewster,Washington,WA,US,48.1034,-119.7751,2343
Battle Ground,Washington,WA,US,45.7764,-122.5413,20576
Shoreline,Washington,WA,US,47.7564,-122.3426,56189
Cosmopolis,Washington,WA,US,46.9541,-123.7725,1624
Airway Heights,Washington,WA,US,47.6459,-117.5792,8166
Grandview,Washington,WA,US,46.2431,-119.9084,18858
Inchelium,Washington,WA,US,48.3378,-118.2372,413
Grand Coulee,Washington,WA,US,47.9391,-119.0031,1042
Union,Washington,WA,US,47.3475,-123.0952,272
Torboy,Washington,WA,US,48.6772,-118.6689,48
Kelso,Washington,WA,US,46.1248,-122.8909,12130
Westport,Washington,WA,US,46.8919,-124.112,2051
Junction City,Washington,WA,US,46.9713,-123.7651,10
Lake Ketchum,Washington,WA,US,48.282,-122.348,894
West Pasco,Washington,WA,US,46.2497,-119.1684,1233
Des Moines,Washington,WA,US,47.3914,-122.3154,31238
Davenport,Washington,WA,US,47.6551,-118.1519,1708
Seattle,Washington,WA,US,47.6211,-122.3244,3643765
Lake Stickney,Washington,WA,US,47.8709,-122.2596,9667
Carnation,Washington,WA,US,47.6446,-121.9048,2164
Everett,Washington,WA,US,47.9524,-122.167,110079
Warden,Washington,WA,US,46.9674,-119.0522,2716
Palouse,Washington,WA,US,46.9103,-117.0751,1055
Terrace Heights,Washington,WA,US,46.6024,-120.4482,7849
Clarkston,Washington,WA,US,46.4152,-117.0502,7396
Elmer City,Washington,WA,US,48,-118.9534,247
Mossyrock,Washington,WA,US,46.5305,-122.4887,789
Summit View,Washington,WA,US,47.1343,-122.3468,7421
Suquamish,Washington,WA,US,47.7238,-122.583,4108
Newcastle,Washington,WA,US,47.5303,-122.1633,11681
Stanwood,Washington,WA,US,48.2451,-122.3426,7161
Kapowsin,Washington,WA,US,46.9727,-122.2272,391
Donald,Washington,WA,US,46.4737,-120.3923,0
Altoona,Washington,WA,US,46.2699,-123.6145,61
South Prairie,Washington,WA,US,47.1373,-122.094,443
Eschbach,Washington,WA,US,46.667,-120.6337,377
Indianola,Washington,WA,US,47.7566,-122.5142,3520
Reardan,Washington,WA,US,47.6698,-117.8778,582
Cowiche,Washington,WA,US,46.6729,-120.7154,960
Sunday Lake,Washington,WA,US,48.2306,-122.2684,666
Rocky Point,Washington,WA,US,47.5882,-122.6668,1449
Burbank,Washington,WA,US,46.1991,-118.9728,3398
Lakeland North,Washington,WA,US,47.3374,-122.2814,12487
Granite Falls,Washington,WA,US,48.0874,-121.9704,6565
Camas,Washington,WA,US,45.6003,-122.4306,23331
Skokomish,Washington,WA,US,47.3298,-123.1579,755
Cusick,Washington,WA,US,48.3328,-117.2961,217
Rosalia,Washington,WA,US,47.2363,-117.3769,567
Longbranch,Washington,WA,US,47.2257,-122.7739,3236
Granger,Washington,WA,US,46.3455,-120.1926,3542
North Fort Lewis,Washington,WA,US,47.1221,-122.5966,5009
Tampico,Washington,WA,US,46.5325,-120.8727,465
Tukwila,Washington,WA,US,47.4748,-122.2727,20144
Cathlamet,Washington,WA,US,46.2056,-123.3835,553
Wenatchee,Washington,WA,US,47.4338,-120.3286,71512
Port Ludlow,Washington,WA,US,47.9101,-122.7006,2642
Castle Rock,Washington,WA,US,46.2717,-122.9057,2833
Glacier,Washington,WA,US,48.8903,-121.9323,102
Index,Washington,WA,US,47.8212,-121.5556,205
Republic,Washington,WA,US,48.6477,-118.7326,1062
Bellevue,Washington,WA,US,47.5953,-122.155,144444
Malo,Washington,WA,US,48.7997,-118.6119,72
Anderson Island,Washington,WA,US,47.1577,-122.7037,1292
University Place,Washington,WA,US,47.2148,-122.546,33401
Montesano,Washington,WA,US,47.0102,-123.5858,8494
Rainier,Washington,WA,US,46.8917,-122.6867,2126
Fords Prairie,Washington,WA,US,46.7461,-123.0029,1812
Roy,Washington,WA,US,46.9971,-122.5423,820
Oso,Washington,WA,US,48.2836,-121.9237,212
Marblemount,Washington,WA,US,48.5378,-121.4346,0
Elk Plain,Washington,WA,US,47.0448,-122.3671,14280
Burlington,Washington,WA,US,48.4677,-122.3298,8783
Bangor Base,Washington,WA,US,47.7227,-122.7146,6358
Beaux Arts Village,Washington,WA,US,47.5854,-122.2009,326
Port Gamble Tribal Community,Washington,WA,US,47.8487,-122.5571,920
Olympia,Washington,WA,US,47.0417,-122.8959,196078
East Wenatchee,Washington,WA,US,47.4172,-120.2809,13983
Addy,Washington,WA,US,48.3588,-117.8372,96
Minnehaha,Washington,WA,US,45.6577,-122.6204,11767
Bryn Mawr-Skyway,Washington,WA,US,47.4949,-122.2411,18365
Satsop,Washington,WA,US,47.0223,-123.4737,572
Riverbend,Washington,WA,US,47.4651,-121.7491,2241
Easton,Washington,WA,US,47.2405,-121.1733,395
Silverdale,Washington,WA,US,47.6663,-122.6828,20664
Napavine,Washington,WA,US,46.5844,-122.9007,1893
Lochsloy,Washington,WA,US,48.0597,-122.0411,3188
Ellensburg,Washington,WA,US,46.9994,-120.547,23471
McKenna,Washington,WA,US,46.9365,-122.55,978
Fairfield,Washington,WA,US,47.3848,-117.1748,616
Northwest Stanwood,Washington,WA,US,48.2623,-122.3501,144
Mansfield,Washington,WA,US,47.8119,-119.638,339
Duvall,Washington,WA,US,47.7354,-121.9725,7813
Markham,Washington,WA,US,46.9155,-123.9814,238
Waller,Washington,WA,US,47.2035,-122.3699,8064
Longview,Washington,WA,US,46.146,-122.963,65619
Richland,Washington,WA,US,46.2826,-119.2937,56243
Rosedale,Washington,WA,US,47.3453,-122.6368,4459
Vancouver,Washington,WA,US,45.6367,-122.597,175673
Bethel,Washington,WA,US,47.4874,-122.6175,3673
Custer,Washington,WA,US,48.9143,-122.6397,149
Lofall,Washington,WA,US,47.8113,-122.6564,2211
Fairwood,Washington,WA,US,47.4467,-122.143,19531
Winlock,Washington,WA,US,46.4907,-122.9342,1354
Sumner,Washington,WA,US,47.219,-122.2338,10093
Cottage Lake,Washington,WA,US,47.7466,-122.0755,23941
Puget Island,Washington,WA,US,46.1742,-123.3829,899
Woods Creek,Washington,WA,US,47.8821,-121.8982,5826
Washougal,Washington,WA,US,45.5812,-122.3433,15711
Sisco Heights,Washington,WA,US,48.1188,-122.1076,2810
Canterwood,Washington,WA,US,47.3766,-122.6022,3220
Wapato,Washington,WA,US,46.4434,-120.4215,7686
Lower Elochoman,Washington,WA,US,46.2185,-123.3698,160
Lake Goodwin,Washington,WA,US,48.1387,-122.2804,3879
Banks Lake South,Washington,WA,US,47.6315,-119.276,270
Kent,Washington,WA,US,47.3887,-122.2128,128458
Bickleton,Washington,WA,US,46.0056,-120.3081,67
Ryderwood,Washington,WA,US,46.375,-123.0441,332
Cavalero,Washington,WA,US,47.9845,-122.0746,5284
La Conner,Washington,WA,US,48.3925,-122.4945,3475
Martha Lake,Washington,WA,US,47.848,-122.2326,18566
George,Washington,WA,US,47.0845,-119.8598,507
Snohomish,Washington,WA,US,47.9277,-122.097,10089
Eatonville,Washington,WA,US,46.8682,-122.2698,3038
Carson,Washington,WA,US,45.7353,-121.8219,2688
Almira,Washington,WA,US,47.7105,-118.9369,276
Nooksack,Washington,WA,US,48.9276,-122.3211,1560
Mount Vista,Washington,WA,US,45.7373,-122.6315,8525
High Bridge,Washington,WA,US,47.7968,-122.0281,3028
Lakeland South,Washington,WA,US,47.2784,-122.2831,13982
Kenmore,Washington,WA,US,47.7532,-122.2459,22867
Neah Bay,Washington,WA,US,48.3612,-124.6115,994
Cliffdell,Washington,WA,US,46.9213,-121.042,80
Port Angeles East,Washington,WA,US,48.1041,-123.3695,3627
Burien,Washington,WA,US,47.4762,-122.3393,51671
Taholah,Washington,WA,US,47.3283,-124.2728,714
Wauna,Washington,WA,US,47.386,-122.6694,4412
Connell,Washington,WA,US,46.6624,-118.8405,5360
Disautel,Washington,WA,US,48.345,-119.2299,22
Santiago,Washington,WA,US,47.2975,-124.2327,26
Orting,Washington,WA,US,47.0966,-122.2111,7983
Colville,Washington,WA,US,48.5454,-117.8986,5064
Marysville,Washington,WA,US,48.081,-122.1558,166541
Walla Walla,Washington,WA,US,46.0669,-118.3365,57779
Zillah,Washington,WA,US,46.4083,-120.2717,3125
Curlew,Washington,WA,US,48.8777,-118.6045,149
Key Center,Washington,WA,US,47.3376,-122.7505,3810
Hoodsport,Washington,WA,US,47.402,-123.1542,331
Spanaway,Washington,WA,US,47.0979,-122.4233,30528
Mattawa,Washington,WA,US,46.7364,-119.9019,5122
Clallam Bay,Washington,WA,US,48.2536,-124.2579,366
Prairie Ridge,Washington,WA,US,47.1443,-122.1408,12733
Rockport,Washington,WA,US,48.4854,-121.6065,76
Stansberry Lake,Washington,WA,US,47.3814,-122.7154,2747
Copalis Beach,Washington,WA,US,47.1205,-124.1722,559
Frederickson,Washington,WA,US,47.0914,-122.3594,21737
Asotin,Washington,WA,US,46.3371,-117.0433,1295
Mill Creek,Washington,WA,US,47.8633,-122.2034,20832
Bell Hill,Washington,WA,US,48.055,-123.087,875
Green Bluff,Washington,WA,US,47.819,-117.277,544
Clayton,Washington,WA,US,48.0013,-117.5612,361
Puyallup,Washington,WA,US,47.1794,-122.2902,41001
Hockinson,Washington,WA,US,45.7301,-122.4833,5267
Lake McMurray,Washington,WA,US,48.3129,-122.2317,134
Bucoda,Washington,WA,US,46.7968,-122.868,583
Issaquah,Washington,WA,US,47.542,-122.0444,37487
Odessa,Washington,WA,US,47.3326,-118.6895,876
Hazel Dell,Washington,WA,US,45.6797,-122.6553,21449
McMillin,Washington,WA,US,47.1286,-122.2374,1673
Wilbur,Washington,WA,US,47.7583,-118.711,839
Skamokawa Valley,Washington,WA,US,46.3004,-123.4243,300
Centerville,Washington,WA,US,45.754,-120.9081,109
Nile,Washington,WA,US,46.8368,-120.9455,98
Spokane Valley,Washington,WA,US,47.6625,-117.2346,97847
Woodland,Washington,WA,US,45.9149,-122.7503,6531
Lewisville,Washington,WA,US,45.8127,-122.5144,1503
Vantage,Washington,WA,US,46.9453,-119.9923,18
Gorst,Washington,WA,US,47.5237,-122.7057,257
Lake Morton-Berrydale,Washington,WA,US,47.3325,-122.103,11201
Ione,Washington,WA,US,48.7402,-117.4223,459
Bothell West,Washington,WA,US,47.8056,-122.24,20472
Vaughn,Washington,WA,US,47.355,-122.7773,342
Black Diamond,Washington,WA,US,47.313,-122.0181,4436
Ferndale,Washington,WA,US,48.8525,-122.5893,14026
Acme,Washington,WA,US,48.7146,-122.2293,183
White Center,Washington,WA,US,47.5086,-122.348,15300
Fairchild AFB,Washington,WA,US,47.6187,-117.6485,2960
Pacific,Washington,WA,US,47.2611,-122.2507,7184
Glenwood,Washington,WA,US,46.0228,-121.2926,157
Colfax,Washington,WA,US,46.9032,-117.3394,2811
Silvana,Washington,WA,US,48.2018,-122.2459,0
Forks,Washington,WA,US,47.9526,-124.3904,4274
Kirkland,Washington,WA,US,47.6997,-122.2041,88630
Okanogan,Washington,WA,US,48.3671,-119.5784,2571
Kayak Point,Washington,WA,US,48.1387,-122.3342,1693
Union Hill-Novelty Hill,Washington,WA,US,47.6788,-122.0284,22109
Outlook,Washington,WA,US,46.3311,-120.0923,300
Lake Tapps,Washington,WA,US,47.2305,-122.1696,13091
Cohassett Beach,Washington,WA,US,46.8656,-124.1054,712
Tonasket,Washington,WA,US,48.7077,-119.4412,1126
Sunnyside,Washington,WA,US,46.3159,-120.0058,17927
Lakeview,Washington,WA,US,47.3755,-119.5043,881
Carbonado,Washington,WA,US,47.0805,-122.0536,701
Pullman,Washington,WA,US,46.734,-117.1669,33276
Blyn,Washington,WA,US,48.013,-122.9897,22
Brinnon,Washington,WA,US,47.6689,-122.9249,703
Friday Harbor,Washington,WA,US,48.5324,-123.0655,2407
Orchards,Washington,WA,US,45.6888,-122.5305,21299
Purdy,Washington,WA,US,47.3938,-122.6114,1087
Tekoa,Washington,WA,US,47.2247,-117.0732,809
Tanner,Washington,WA,US,47.4813,-121.6921,905
Thorp,Washington,WA,US,47.0656,-120.6709,297
Artondale,Washington,WA,US,47.3024,-122.639,12937
Liberty Lake,Washington,WA,US,47.6687,-117.1032,9893
Cheney,Washington,WA,US,47.4901,-117.5789,12421
Sammamish,Washington,WA,US,47.6019,-122.0419,64548
Cle Elum,Washington,WA,US,47.1946,-120.9553,3768
Fern Prairie,Washington,WA,US,45.637,-122.3963,2611
Waverly,Washington,WA,US,47.338,-117.2312,108
Lakewood,Washington,WA,US,47.1628,-122.5299,60296
Lake Marcel-Stillwater,Washington,WA,US,47.6926,-121.9152,1220
Central Park,Washington,WA,US,46.9705,-123.7018,2741
Bridgeport,Washington,WA,US,48.0063,-119.6737,2555
Raft Island,Washington,WA,US,47.3293,-122.6686,341
Larch Way,Washington,WA,US,47.8429,-122.2527,4117
Lake Bosworth,Washington,WA,US,48.0532,-121.9812,654
Barberton,Washington,WA,US,45.7136,-122.6114,6719
Sekiu,Washington,WA,US,48.2637,-124.3012,50
Brier,Washington,WA,US,47.7922,-122.2734,6884
Spokane,Washington,WA,US,47.6671,-117.433,403043
Fall City,Washington,WA,US,47.5717,-121.9134,1903
Pasco,Washington,WA,US,46.2506,-119.1303,73013
Lyman,Washington,WA,US,48.523,-122.0634,468
Oakville,Washington,WA,US,46.8403,-123.2333,684
Dash Point,Washington,WA,US,47.3131,-122.4153,1007
Herron Island,Washington,WA,US,47.2645,-122.8348,69
West Clarkston-Highland,Washington,WA,US,46.4023,-117.063,5895
Royal City,Washington,WA,US,46.9,-119.6142,2205
Venersborg,Washington,WA,US,45.786,-122.4721,4196
Hoquiam,Washington,WA,US,46.9863,-123.9023,8500
Willapa,Washington,WA,US,46.6755,-123.6648,204
Quilcene,Washington,WA,US,47.8369,-122.9058,432
Freeland,Washington,WA,US,48.0185,-122.5358,1698
McCleary,Washington,WA,US,47.0584,-123.2723,1691
Roosevelt,Washington,WA,US,45.7476,-120.2161,107
Long Beach,Washington,WA,US,46.3559,-124.0556,1413
Trout Lake,Washington,WA,US,45.9976,-121.5291,654
Coulee Dam,Washington,WA,US,47.9688,-118.9761,1079
Swede Heaven,Washington,WA,US,48.2829,-121.7136,1030
Pine Grove,Washington,WA,US,48.6502,-118.6834,111
Langley,Washington,WA,US,48.0337,-122.4084,1124
Sedro-Woolley,Washington,WA,US,48.5113,-122.2321,11838
Hatton,Washington,WA,US,46.7735,-118.8277,101
Entiat,Washington,WA,US,47.678,-120.2175,1223
Bainbridge Island,Washington,WA,US,47.6439,-122.5434,24522
Auburn,Washington,WA,US,47.3041,-122.211,80776
Ocean City,Washington,WA,US,47.0763,-124.162,168
White Swan,Washington,WA,US,46.3769,-120.7382,973
Felida,Washington,WA,US,45.7138,-122.7103,8065
Lacey,Washington,WA,US,47.0458,-122.7934,49748
Gold Bar,Washington,WA,US,47.8566,-121.6927,2301
Clyde Hill,Washington,WA,US,47.6303,-122.218,3318
Upper Elochoman,Washington,WA,US,46.2403,-123.3247,70
Marcus,Washington,WA,US,48.6642,-118.0601,183
Canyon Creek,Washington,WA,US,48.1157,-121.9831,3319
Malone,Washington,WA,US,46.9779,-123.3035,543
Bothell East,Washington,WA,US,47.8064,-122.1844,10424
Yarrow Point,Washington,WA,US,47.6452,-122.2179,1126
Steptoe,Washington,WA,US,47.0075,-117.3502,183
West Richland,Washington,WA,US,46.3115,-119.3997,14596
Orient,Washington,WA,US,48.8637,-118.2059,132
Federal Way,Washington,WA,US,47.309,-122.3359,96690
Pe Ell,Washington,WA,US,46.5712,-123.2982,653
Deep River,Washington,WA,US,46.3521,-123.6984,151
Bothell,Washington,WA,US,47.7736,-122.2044,45533
South Wenatchee,Washington,WA,US,47.3886,-120.2829,2057
Snoqualmie Pass,Washington,WA,US,47.4014,-121.4109,235
Hartline,Washington,WA,US,47.6895,-119.1081,154
Lake Forest Park,Washington,WA,US,47.7597,-122.2878,13392
Crocker,Washington,WA,US,47.0843,-122.1225,1332
Elbe,Washington,WA,US,46.7653,-122.1946,53
Ravensdale,Washington,WA,US,47.3563,-121.9692,1579
Arlington,Washington,WA,US,48.1697,-122.1446,19212
McChord AFB,Washington,WA,US,47.1328,-122.4924,3337
Lebam,Washington,WA,US,46.5641,-123.5509,101
Lynden,Washington,WA,US,48.9503,-122.4544,17340
Coupeville,Washington,WA,US,48.2172,-122.6775,1928
Prescott,Washington,WA,US,46.2988,-118.3126,304
South Bend,Washington,WA,US,46.668,-123.8008,1651
Mabton,Washington,WA,US,46.2115,-119.9938,2532
North Bend,Washington,WA,US,47.4898,-121.7738,6821
Grapeview,Washington,WA,US,47.3316,-122.8413,982
Garfield,Washington,WA,US,47.0103,-117.1395,614
Rochester,Washington,WA,US,46.8288,-123.0722,2923
Dayton,Washington,WA,US,46.3168,-117.9769,2637
Algona,Washington,WA,US,47.2822,-122.2504,3185
Mineral,Washington,WA,US,46.7193,-122.1859,193
Barstow,Washington,WA,US,48.7783,-118.1329,119
Moclips,Washington,WA,US,47.2348,-124.2025,0
Bellingham,Washington,WA,US,48.7543,-122.4687,126015
Vader,Washington,WA,US,46.4045,-122.9569,643
North Lynnwood,Washington,WA,US,47.8533,-122.2762,20626
Tracyton,Washington,WA,US,47.6095,-122.6533,5937
White Salmon,Washington,WA,US,45.7282,-121.4853,2552
Peaceful Valley,Washington,WA,US,48.9477,-122.1406,4196
East Renton Highlands,Washington,WA,US,47.4718,-122.0854,11401
Metaline,Washington,WA,US,48.854,-117.3899,178
Deming,Washington,WA,US,48.8381,-122.2313,240
Medical Lake,Washington,WA,US,47.5712,-117.6893,4818
Aberdeen,Washington,WA,US,46.9757,-123.8095,29089
Chehalis,Washington,WA,US,46.6637,-122.9647,7533
Onalaska,Washington,WA,US,46.5783,-122.7112,709
Toledo,Washington,WA,US,46.4414,-122.8496,751
Everson,Washington,WA,US,48.9123,-122.351,4709
Belfair,Washington,WA,US,47.4495,-122.8487,4063
Lynnwood,Washington,WA,US,47.8285,-122.3035,38273
Colton,Washington,WA,US,46.5675,-117.1285,467
Malden,Washington,WA,US,47.2296,-117.4731,209
Ames Lake,Washington,WA,US,47.6346,-121.9664,1526
Wilson Creek,Washington,WA,US,47.423,-119.1176,212
North Yelm,Washington,WA,US,46.9647,-122.6029,2887
Mirrormont,Washington,WA,US,47.4616,-121.9936,3682
Whidbey Island Station,Washington,WA,US,48.3387,-122.6616,1938
Town and Country,Washington,WA,US,47.7259,-117.4221,5001
Tokeland,Washington,WA,US,46.709,-123.9839,330
Snoqualmie,Washington,WA,US,47.5293,-121.8412,26054
Bremerton,Washington,WA,US,47.5436,-122.7121,216480
East Cathlamet,Washington,WA,US,46.1968,-123.358,503
Fort Lewis,Washington,WA,US,47.0955,-122.5672,13920
Salmon Creek,Washington,WA,US,45.7099,-122.6632,21068
Skykomish,Washington,WA,US,47.7103,-121.3586,216
Tacoma,Washington,WA,US,47.2431,-122.4531,213418
Monroe,Washington,WA,US,47.8596,-121.9853,18789
Loomis,Washington,WA,US,48.8235,-119.6398,117
Pomeroy,Washington,WA,US,46.4737,-117.5967,1388
Brush Prairie,Washington,WA,US,45.725,-122.5483,2783
Silver Firs,Washington,WA,US,47.8635,-122.1497,22937
Nespelem,Washington,WA,US,48.167,-118.9722,313
Meadowdale,Washington,WA,US,47.8583,-122.3156,3049
Shadow Lake,Washington,WA,US,47.4017,-122.0764,2655
LaCrosse,Washington,WA,US,46.8021,-117.9013,324
Concrete,Washington,WA,US,48.5371,-121.7512,729
Sumas,Washington,WA,US,48.9956,-122.2695,1464
Ruston,Washington,WA,US,47.2982,-122.51,828
La Center,Washington,WA,US,45.8589,-122.6764,3171
Marrowstone,Washington,WA,US,48.0568,-122.6933,1084
Chelan Falls,Washington,WA,US,47.7995,-119.9882,86
Lake Cavanaugh,Washington,WA,US,48.3225,-122.0122,179
Duluth,Washington,WA,US,45.7838,-122.647,1379
Carbon,Texas,TX,US,32.2684,-98.8272,271
Sequim,Washington,WA,US,48.0747,-123.0944,20750
Benton City,Washington,WA,US,46.2624,-119.4814,4591
Moses Lake,Washington,WA,US,47.1284,-119.2741,37774
Fircrest,Washington,WA,US,47.2308,-122.5157,6794
Othello,Washington,WA,US,46.8222,-119.1651,12375
Mercer Island,Washington,WA,US,47.5625,-122.2265,25261
Enumclaw,Washington,WA,US,47.2017,-121.9897,11784
Chico,Washington,WA,US,47.6234,-122.7198,2635
Enetai,Washington,WA,US,47.5885,-122.6058,2231
Hunts Point,Washington,WA,US,47.642,-122.229,434
Clinton,Washington,WA,US,47.9731,-122.3577,811
Hat Island,Washington,WA,US,48.013,-122.3201,48
Marietta-Alderwood,Washington,WA,US,48.7932,-122.5566,4495
Waitsburg,Washington,WA,US,46.2696,-118.151,1195
Sunnyslope,Washington,WA,US,47.4913,-120.3493,3641
South Cle Elum,Washington,WA,US,47.1862,-120.9525,560
Selah,Washington,WA,US,46.6482,-120.5389,7859
Lind,Washington,WA,US,46.9704,-118.6165,556
Five Corners,Washington,WA,US,45.6883,-122.5738,18405
Winthrop,Washington,WA,US,48.4716,-120.179,439
Normandy Park,Washington,WA,US,47.4344,-122.3436,6649
Home,Washington,WA,US,47.279,-122.7744,1375
Graham,Washington,WA,US,47.0407,-122.2757,26939
Yacolt,Washington,WA,US,45.865,-122.4059,1735
Packwood,Washington,WA,US,46.6085,-121.6702,230
Queets,Washington,WA,US,47.5314,-124.3385,199
Finley,Washington,WA,US,46.1697,-119.0446,6015
Northport,Washington,WA,US,48.9159,-117.7796,296
Medina,Washington,WA,US,47.6256,-122.2338,3267
Browns Point,Washington,WA,US,47.3036,-122.4369,1122
Summit,Washington,WA,US,47.1694,-122.3628,7876
Albion,Washington,WA,US,46.7916,-117.2511,608
Sudden Valley,Washington,WA,US,48.7199,-122.3468,7621
Bunk Foss,Washington,WA,US,47.9618,-122.0943,3604
Gleed,Washington,WA,US,46.6594,-120.6025,2474
Maryhill,Washington,WA,US,45.6928,-120.807,73
Oyehut,Washington,WA,US,47.0233,-124.1632,0
Alder,Washington,WA,US,46.7872,-122.2667,133
Ridgefield,Washington,WA,US,45.8116,-122.7052,7117
Bryant,Washington,WA,US,48.24,-122.1638,1990
Nisqually Indian Community,Washington,WA,US,47.0178,-122.6728,690
Porter,Washington,WA,US,46.9489,-123.2736,222
Kettle Falls,Washington,WA,US,48.6055,-118.062,1611
Chelan,Washington,WA,US,47.8417,-120.027,6078
Edison,Washington,WA,US,48.5602,-122.431,156
Neilton,Washington,WA,US,47.4031,-123.8782,373
Fox Island,Washington,WA,US,47.2475,-122.6255,3848
Renton,Washington,WA,US,47.4758,-122.1905,101379
Baring,Washington,WA,US,47.7661,-121.4803,173
Hobart,Washington,WA,US,47.412,-121.996,6736
Wallula,Washington,WA,US,46.0847,-118.9056,329
Touchet,Washington,WA,US,46.0412,-118.6724,437
Leavenworth,Washington,WA,US,47.5948,-120.6633,3332
Fobes Hill,Washington,WA,US,47.9391,-122.1341,2779
Harrington,Washington,WA,US,47.4802,-118.2552,411
Port Orchard,Washington,WA,US,47.5164,-122.661,13997
Alderwood Manor,Washington,WA,US,47.8147,-122.2676,8817
Kennewick,Washington,WA,US,46.1979,-119.1732,232915
Ahtanum,Washington,WA,US,46.5583,-120.6109,3076
Wilderness Rim,Washington,WA,US,47.4463,-121.7691,1443
Machias,Washington,WA,US,47.9917,-122.0515,886
Bingen,Washington,WA,US,45.7139,-121.4704,729
Four Lakes,Washington,WA,US,47.5582,-117.5891,403
Springdale,Washington,WA,US,48.0572,-117.7466,293
Washtucna,Washington,WA,US,46.7538,-118.3106,204
Covington,Washington,WA,US,47.3668,-122.1044,20916
Allyn,Washington,WA,US,47.3863,-122.8386,2650
North Sultan,Washington,WA,US,47.8827,-121.8251,241
Union Gap,Washington,WA,US,46.5567,-120.4977,6161
Shelton,Washington,WA,US,47.2188,-123.1127,19296
Chinook,Washington,WA,US,46.2755,-123.9425,300
Blaine,Washington,WA,US,48.9839,-122.7414,5311
Port Hadlock-Irondale,Washington,WA,US,48.0316,-122.789,3765
Burley,Washington,WA,US,47.4166,-122.6377,1941
Mount Vernon,Washington,WA,US,48.4202,-122.3116,69528
Electric City,Washington,WA,US,47.922,-119.0475,1001
Ronald,Washington,WA,US,47.2338,-121.0335,284
Nespelem Community,Washington,WA,US,48.1715,-119.0244,259
Amanda Park,Washington,WA,US,47.4532,-123.9194,119
Clarkston Heights-Vineland,Washington,WA,US,46.3876,-117.0831,6453
Boulevard Park,Washington,WA,US,47.5135,-122.3159,3916
Big Lake,Washington,WA,US,48.3933,-122.2422,1784
Boyds,Washington,WA,US,48.7245,-118.1321,76
Parkwood,Washington,WA,US,47.5266,-122.5986,6559
Deer Park,Washington,WA,US,47.9642,-117.4397,3868
Humptulips,Washington,WA,US,47.2491,-123.9348,277
SeaTac,Washington,WA,US,47.4445,-122.2986,29140
Maple Valley,Washington,WA,US,47.3659,-122.0368,25758
Millwood,Washington,WA,US,47.6856,-117.2806,1784
Point Roberts,Washington,WA,US,48.9883,-123.0576,1251
Dixie,Washington,WA,US,46.1392,-118.148,256
East Port Orchard,Washington,WA,US,47.5193,-122.6183,5334
Morton,Washington,WA,US,46.5575,-122.2815,1159
Alger,Washington,WA,US,48.6176,-122.3369,235
Kahlotus,Washington,WA,US,46.6437,-118.5556,199
Fife Heights,Washington,WA,US,47.2593,-122.3457,2185
Cherry Grove,Washington,WA,US,45.8021,-122.5764,689
Clearview,Washington,WA,US,47.8292,-122.1452,3907
Greenwater,Washington,WA,US,47.1465,-121.632,28
Picnic Point,Washington,WA,US,47.8745,-122.3079,9002
Kendall,Washington,WA,US,48.9168,-122.1383,37
Seabeck,Washington,WA,US,47.6437,-122.8219,1141
Startup,Washington,WA,US,47.8671,-121.7495,683
Steilacoom,Washington,WA,US,47.1699,-122.5935,6337
Lamont,Washington,WA,US,47.2007,-117.9049,74
Bay View,Washington,WA,US,48.487,-122.4628,625
Valley,Washington,WA,US,48.173,-117.7244,171
North Marysville,Washington,WA,US,48.1111,-122.1459,172
Brady,Washington,WA,US,47.0064,-123.5321,360
May Creek,Washington,WA,US,47.8555,-121.6743,663
Clear Lake,Washington,WA,US,48.4561,-122.2378,990
Keller,Washington,WA,US,48.0852,-118.7164,228
Redmond,Washington,WA,US,47.6762,-122.1169,64291
Ilwaco,Washington,WA,US,46.3108,-124.0422,945
Mountlake Terrace,Washington,WA,US,47.7921,-122.3076,21337
Parker,Washington,WA,US,46.5022,-120.4668,60
Soap Lake,Washington,WA,US,47.3914,-119.4892,1579
Grand Mound,Washington,WA,US,46.8053,-123.0119,3119
Manchester,Washington,WA,US,47.5519,-122.5517,5447
Prairie Heights,Washington,WA,US,47.1529,-122.1048,4610
Verlot,Washington,WA,US,48.1002,-121.7679,457
North Omak,Washington,WA,US,48.444,-119.4459,685
Naches,Washington,WA,US,46.7274,-120.6945,827
Summitview,Washington,WA,US,46.598,-120.6514,1182
Clover Creek,Washington,WA,US,47.1404,-122.3827,6831
Prosser,Washington,WA,US,46.2066,-119.7662,6264
Naselle,Washington,WA,US,46.365,-123.8013,376
Rock Island,Washington,WA,US,47.3743,-120.1382,1015
Goldendale,Washington,WA,US,45.8192,-120.8233,3404
Maltby,Washington,WA,US,47.8027,-122.1044,11443
Oak Harbor,Washington,WA,US,48.2965,-122.6331,34663
Tanglewilde,Washington,WA,US,47.0512,-122.781,6205
Endicott,Washington,WA,US,46.9282,-117.6867,305
Mill Creek East,Washington,WA,US,47.8361,-122.1877,20514
Maple Heights-Lake Desire,Washington,WA,US,47.4441,-122.0973,3442
Midland,Washington,WA,US,47.1734,-122.412,8792
Kingston,Washington,WA,US,47.8014,-122.4989,1875
Esperance,Washington,WA,US,47.7937,-122.3469,3902
Grays River,Washington,WA,US,46.3608,-123.589,425
Sultan,Washington,WA,US,47.8708,-121.8044,8803
La Grande,Washington,WA,US,46.8199,-122.2962,118
Ritzville,Washington,WA,US,47.1254,-118.3808,1637
Malott,Washington,WA,US,48.2919,-119.6954,592
Coulee City,Washington,WA,US,47.612,-119.2892,567
Raymond,Washington,WA,US,46.6838,-123.738,4136
Wollochet,Washington,WA,US,47.2828,-122.5769,6291
Quincy,Washington,WA,US,47.2347,-119.8522,7756
Walla Walla East,Washington,WA,US,46.0517,-118.3024,1877
Hamilton,Washington,WA,US,48.5282,-121.9834,309
Woodinville,Washington,WA,US,47.7569,-122.1477,11997
Bay Center,Washington,WA,US,46.6211,-123.9533,215
Port Townsend,Washington,WA,US,48.122,-122.7872,8804
Riverside,Washington,WA,US,48.5047,-119.5102,273
Woodway,Washington,WA,US,47.7903,-122.3851,1378
Qui-nai-elt Village,Washington,WA,US,47.2502,-124.1903,79
Stevenson,Washington,WA,US,45.6944,-121.8932,1555
Ocean Park,Washington,WA,US,46.4961,-124.0443,1782
Port Angeles,Washington,WA,US,48.1142,-123.4565,23865
Bonney Lake,Washington,WA,US,47.1789,-122.1698,20675
Oroville,Washington,WA,US,48.942,-119.4304,1674
Garrett,Washington,WA,US,46.0633,-118.3876,1531
Otis Orchards-East Farms,Washington,WA,US,47.703,-117.0854,6385
Warm Beach,Washington,WA,US,48.1649,-122.3442,2495
Twin Lakes,Washington,WA,US,48.2622,-118.359,100
Conway,Washington,WA,US,48.3357,-122.3444,11
College Place,Washington,WA,US,46.0418,-118.3879,9258
Eastmont,Washington,WA,US,47.8968,-122.1817,21951
Maple Falls,Washington,WA,US,48.9135,-122.1048,76
Ephrata,Washington,WA,US,47.3119,-119.5344,7275
Buena,Washington,WA,US,46.4299,-120.3176,1345
Tumwater,Washington,WA,US,46.989,-122.9173,22973
Desert Aire,Washington,WA,US,46.6873,-119.9311,2872
Lake Holm,Washington,WA,US,47.2986,-122.1335,3263
Mukilteo,Washington,WA,US,47.9094,-122.3035,21469
Twisp,Washington,WA,US,48.3618,-120.1169,956
Lake Shore,Washington,WA,US,45.6911,-122.6911,7550
Keyport,Washington,WA,US,47.6993,-122.6232,457
Lake Stevens,Washington,WA,US,48.0029,-122.096,32785
Starbuck,Washington,WA,US,46.5182,-118.1245,131
Harrah,Washington,WA,US,46.4071,-120.5422,636
Hansville,Washington,WA,US,47.8978,-122.5579,3809
Carlsborg,Washington,WA,US,48.0842,-123.1697,762
Yelm,Washington,WA,US,46.9398,-122.6261,16504
Fenwick Island,Delaware,DE,US,38.4603,-75.0542,429
Delmar,Delaware,DE,US,38.4651,-75.5552,1782
Ardencroft,Delaware,DE,US,39.8056,-75.4862,238
Farmington,Delaware,DE,US,38.8699,-75.579,115
Felton,Delaware,DE,US,39.0127,-75.5764,1398
Hartly,Delaware,DE,US,39.1683,-75.7125,74
Pike Creek,Delaware,DE,US,39.7485,-75.6953,8740
Millville,Delaware,DE,US,38.5353,-75.1287,622
Highland Acres,Delaware,DE,US,39.1162,-75.5216,3775
Rising Sun-Lebanon,Delaware,DE,US,39.0999,-75.5048,3817
Little Creek,Delaware,DE,US,39.1661,-75.4481,231
Magnolia,Delaware,DE,US,39.0714,-75.476,280
Greenville,Delaware,DE,US,39.7783,-75.6049,2305
Elsmere,Delaware,DE,US,39.7385,-75.5946,6045
Harrington,Delaware,DE,US,38.9244,-75.5707,4553
Seaford,Delaware,DE,US,38.6539,-75.6117,7750
Dover Base Housing,Delaware,DE,US,39.1179,-75.4839,3200
Byers,Texas,TX,US,34.0696,-98.1913,472
Dagsboro,Delaware,DE,US,38.5466,-75.2467,886
Milford,Delaware,DE,US,38.9091,-75.4224,20864
Bridgeville,Delaware,DE,US,38.7247,-75.6027,3798
Bellefonte,Delaware,DE,US,39.7669,-75.4982,1171
Smyrna,Delaware,DE,US,39.2922,-75.6076,11584
Wilmington Manor,Delaware,DE,US,39.6858,-75.5849,7608
New Castle,Delaware,DE,US,39.6685,-75.5692,5348
Bowers,Delaware,DE,US,39.0602,-75.4021,366
Bethel,Delaware,DE,US,38.5706,-75.6194,193
Selbyville,Delaware,DE,US,38.4627,-75.2083,2450
Houston,Delaware,DE,US,38.9174,-75.5039,401
Woodside East,Delaware,DE,US,39.0676,-75.5376,2569
Viola,Delaware,DE,US,39.0429,-75.5714,164
Dewey Beach,Delaware,DE,US,38.6958,-75.0749,381
Newport,Delaware,DE,US,39.7136,-75.6052,1040
Bethany Beach,Delaware,DE,US,38.5391,-75.066,1202
Edgemoor,Delaware,DE,US,39.7551,-75.507,6178
Townsend,Delaware,DE,US,39.3968,-75.6945,2470
Georgetown,Delaware,DE,US,38.6899,-75.3872,10255
Kenton,Delaware,DE,US,39.2272,-75.6646,263
Greenwood,Delaware,DE,US,38.8069,-75.5907,1097
North Star,Delaware,DE,US,39.755,-75.7331,7390
Slaughter Beach,Delaware,DE,US,38.9143,-75.3085,234
Middletown,Delaware,DE,US,39.4453,-75.7166,34132
Blades,Delaware,DE,US,38.6353,-75.6024,1417
Frederica,Delaware,DE,US,39.008,-75.4667,824
Rehoboth Beach,Delaware,DE,US,38.7168,-75.0843,1496
Milton,Delaware,DE,US,38.7751,-75.3104,2890
Woodside,Delaware,DE,US,39.0712,-75.5667,187
Bear,Delaware,DE,US,39.6188,-75.6804,20401
Wilmington,Delaware,DE,US,39.7415,-75.5413,71106
Pike Creek Valley,Delaware,DE,US,39.7296,-75.6993,10823
Rodney Village,Delaware,DE,US,39.1284,-75.5395,1231
Henlopen Acres,Delaware,DE,US,38.7257,-75.0849,138
Frankford,Delaware,DE,US,38.5215,-75.2342,958
Millsboro,Delaware,DE,US,38.5865,-75.3019,10578
Glasgow,Delaware,DE,US,39.6015,-75.7474,15280
Clayton,Delaware,DE,US,39.2846,-75.6364,3249
Cheswold,Delaware,DE,US,39.2189,-75.5883,1582
Odessa,Delaware,DE,US,39.4562,-75.6605,366
Kent Acres,Delaware,DE,US,39.1325,-75.516,2369
St. Georges,Delaware,DE,US,39.5576,-75.6533,1033
Ardentown,Delaware,DE,US,39.8081,-75.4807,269
Arden,Delaware,DE,US,39.8113,-75.4886,448
Ellendale,Delaware,DE,US,38.8103,-75.425,431
Lewes,Delaware,DE,US,38.7781,-75.1454,27087
Laurel,Delaware,DE,US,38.5696,-75.5688,4320
Brookside,Delaware,DE,US,39.6666,-75.7153,13554
Wyoming,Delaware,DE,US,39.1147,-75.5631,1503
Claymont,Delaware,DE,US,39.8032,-75.4606,8707
Newark,Delaware,DE,US,39.6776,-75.7573,33858
Long Neck,Delaware,DE,US,38.62,-75.1511,2716
Camden,Delaware,DE,US,39.0992,-75.557,3493
Leipsic,Delaware,DE,US,39.243,-75.5155,197
Delaware City,Delaware,DE,US,39.5743,-75.5939,1828
Ocean View,Delaware,DE,US,38.5357,-75.0991,13809
South Bethany,Delaware,DE,US,38.5161,-75.0591,510
Hockessin,Delaware,DE,US,39.7837,-75.6815,13672
Riverview,Delaware,DE,US,39.0293,-75.5202,2728
Dover,Delaware,DE,US,39.161,-75.5203,115352
Washington,District of Columbia,DC,US,38.9047,-77.0163,5289420
Stone Lake,Wisconsin,WI,US,45.8445,-91.5502,181
Nelson,Wisconsin,WI,US,44.4214,-92.0044,351
Fennimore,Wisconsin,WI,US,42.9793,-90.6491,2482
Chenequa,Wisconsin,WI,US,43.1229,-88.3838,593
Helenville,Wisconsin,WI,US,43.0165,-88.6999,187
Tichigan,Wisconsin,WI,US,42.8088,-88.215,5355
Kekoskee,Wisconsin,WI,US,43.5271,-88.5615,156
Wonewoc,Wisconsin,WI,US,43.6531,-90.2239,792
St. Peter,Wisconsin,WI,US,43.8377,-88.3465,1430
Black River Falls,Wisconsin,WI,US,44.2981,-90.8419,5490
Shiocton,Wisconsin,WI,US,44.4449,-88.5768,920
Three Lakes,Wisconsin,WI,US,45.8047,-89.1708,446
Waldo,Wisconsin,WI,US,43.6766,-87.9478,503
North Prairie,Wisconsin,WI,US,42.9357,-88.4038,2222
Mattoon,Wisconsin,WI,US,45.0046,-89.0411,418
Almond,Wisconsin,WI,US,44.2607,-89.4087,432
New Auburn,Wisconsin,WI,US,45.1988,-91.5666,571
Hustisford,Wisconsin,WI,US,43.3442,-88.6033,1083
Little Chute,Wisconsin,WI,US,44.2895,-88.3199,11403
Birnamwood,Wisconsin,WI,US,44.9319,-89.2094,788
Lodi,Wisconsin,WI,US,43.3154,-89.5367,3021
Whitehall,Wisconsin,WI,US,44.3705,-91.3476,1583
West Baraboo,Wisconsin,WI,US,43.4814,-89.7719,1428
Lomira,Wisconsin,WI,US,43.5945,-88.4421,2374
Brownsville,Wisconsin,WI,US,43.6145,-88.4952,574
Bloomer,Wisconsin,WI,US,45.103,-91.4913,3309
Wabeno,Wisconsin,WI,US,45.4394,-88.6581,371
Whitewater,Wisconsin,WI,US,42.8372,-88.734,14374
Reedsville,Wisconsin,WI,US,44.1525,-87.9517,1156
Amherst,Wisconsin,WI,US,44.4475,-89.2832,1039
Monona,Wisconsin,WI,US,43.054,-89.3334,8104
River Falls,Wisconsin,WI,US,44.8608,-92.6244,15873
Delavan,Wisconsin,WI,US,42.6281,-88.6324,12003
Greendale,Wisconsin,WI,US,42.937,-88.0018,14159
Couderay,Wisconsin,WI,US,45.7976,-91.3005,85
Berlin,Wisconsin,WI,US,43.9704,-88.9505,4769
Grantsburg,Wisconsin,WI,US,45.7813,-92.6836,1293
Burnett,Wisconsin,WI,US,43.5065,-88.7085,242
Lakewood,Wisconsin,WI,US,45.3006,-88.5146,344
Wausau,Wisconsin,WI,US,44.9615,-89.6457,73933
Livingston,Wisconsin,WI,US,42.9001,-90.4337,643
Hillsboro,Wisconsin,WI,US,43.6559,-90.3365,1402
Exeland,Wisconsin,WI,US,45.6669,-91.2425,192
Whitelaw,Wisconsin,WI,US,44.1452,-87.8281,740
East Troy,Wisconsin,WI,US,42.7848,-88.3973,4355
Oconto,Wisconsin,WI,US,44.8918,-87.8692,4196
Elkhorn,Wisconsin,WI,US,42.6711,-88.5377,12322
Nashotah,Wisconsin,WI,US,43.0938,-88.4037,1367
Rewey,Wisconsin,WI,US,42.8419,-90.3961,288
Ferryville,Wisconsin,WI,US,43.3516,-91.0935,175
Neillsville,Wisconsin,WI,US,44.5605,-90.5905,2416
Sun Prairie,Wisconsin,WI,US,43.1827,-89.2357,32894
Wilton,Wisconsin,WI,US,43.8132,-90.5268,500
Eleva,Wisconsin,WI,US,44.5763,-91.4705,665
Menomonie,Wisconsin,WI,US,44.8893,-91.9084,18025
Wales,Wisconsin,WI,US,43.0042,-88.3739,2577
Manitowoc,Wisconsin,WI,US,44.0991,-87.6811,44932
Ashippun,Wisconsin,WI,US,43.2182,-88.5159,1030
New Lisbon,Wisconsin,WI,US,43.8781,-90.1625,2507
New Odanah,Wisconsin,WI,US,46.5986,-90.6618,466
Sauk City,Wisconsin,WI,US,43.2721,-89.7307,3468
Pulcifer,Wisconsin,WI,US,44.8476,-88.3592,117
New Berlin,Wisconsin,WI,US,42.9726,-88.1291,39740
Milladore,Wisconsin,WI,US,44.6057,-89.8549,267
Mason,Wisconsin,WI,US,46.4354,-91.06,91
Oconomowoc Lake,Wisconsin,WI,US,43.0975,-88.4521,595
Independence,Wisconsin,WI,US,44.3328,-91.4172,1308
Maribel,Wisconsin,WI,US,44.2775,-87.8025,336
Oak Creek,Wisconsin,WI,US,42.8803,-87.9009,36354
Van Dyne,Wisconsin,WI,US,43.8862,-88.5012,190
Pence,Wisconsin,WI,US,46.4104,-90.2695,128
Saukville,Wisconsin,WI,US,43.3847,-87.9439,4419
Clyman,Wisconsin,WI,US,43.3116,-88.7231,404
Wild Rose,Wisconsin,WI,US,44.1788,-89.2442,703
Reedsburg,Wisconsin,WI,US,43.5346,-89.997,9476
Patch Grove,Wisconsin,WI,US,42.9406,-90.9725,197
Paddock Lake,Wisconsin,WI,US,42.5707,-88.1044,2978
New Holstein,Wisconsin,WI,US,43.9491,-88.0942,3115
Lake Hallie,Wisconsin,WI,US,44.8921,-91.42,6716
Hewitt,Wisconsin,WI,US,44.6425,-90.1048,795
Menomonee Falls,Wisconsin,WI,US,43.1487,-88.1227,37443
Eastman,Wisconsin,WI,US,43.1622,-91.0254,407
Pella,Wisconsin,WI,US,44.7426,-88.8224,180
Princeton,Wisconsin,WI,US,43.8527,-89.1305,1170
Melvina,Wisconsin,WI,US,43.8024,-90.7815,107
Peshtigo,Wisconsin,WI,US,45.0556,-87.7476,3314
Lake Tomahawk,Wisconsin,WI,US,45.811,-89.5873,236
Long Lake,Wisconsin,WI,US,45.8431,-88.6673,54
Maple Bluff,Wisconsin,WI,US,43.1132,-89.3719,1331
Mishicot,Wisconsin,WI,US,44.2303,-87.6422,1388
Iron Ridge,Wisconsin,WI,US,43.3982,-88.532,899
Johnson Creek,Wisconsin,WI,US,43.0812,-88.7702,2976
Juneau,Wisconsin,WI,US,43.4053,-88.7041,2605
Kohler,Wisconsin,WI,US,43.7364,-87.7795,2081
Thornton,Wisconsin,WI,US,44.7984,-88.6917,63
Seymour,Wisconsin,WI,US,44.5142,-88.3271,3508
Brandon,Wisconsin,WI,US,43.7352,-88.7822,854
Camp Douglas,Wisconsin,WI,US,43.9197,-90.2697,624
Hatley,Wisconsin,WI,US,44.8866,-89.3371,595
Lake Ripley,Wisconsin,WI,US,43.0045,-88.9829,1642
Bruce,Wisconsin,WI,US,45.459,-91.2734,715
Hammond,Wisconsin,WI,US,44.9691,-92.4381,1891
Maiden Rock,Wisconsin,WI,US,44.566,-92.3083,116
Wind Point,Wisconsin,WI,US,42.7814,-87.7721,1707
Minong,Wisconsin,WI,US,46.0978,-91.8263,506
Lewis,Wisconsin,WI,US,45.7159,-92.3965,129
Arkdale,Wisconsin,WI,US,44.0253,-89.8861,112
Wautoma,Wisconsin,WI,US,44.0667,-89.2916,2483
Black Earth,Wisconsin,WI,US,43.1344,-89.747,1403
Kewaunee,Wisconsin,WI,US,44.4607,-87.5133,2547
Cumberland,Wisconsin,WI,US,45.5353,-92.0269,2119
North Bay,Wisconsin,WI,US,42.7644,-87.7812,238
Tilleda,Wisconsin,WI,US,44.8155,-88.9125,92
Iron Belt,Wisconsin,WI,US,46.4031,-90.3193,200
Deerfield,Wisconsin,WI,US,43.0492,-89.0762,2529
DeForest,Wisconsin,WI,US,43.2302,-89.3437,10340
Fountain City,Wisconsin,WI,US,44.1201,-91.6969,861
Bancroft,Wisconsin,WI,US,44.3093,-89.5071,492
Rothschild,Wisconsin,WI,US,44.8761,-89.6173,5325
Poy Sippi,Wisconsin,WI,US,44.136,-88.9963,328
New London,Wisconsin,WI,US,44.395,-88.7394,7448
Plum City,Wisconsin,WI,US,44.6338,-92.1918,604
Lancaster,Wisconsin,WI,US,42.8474,-90.7065,3562
Rockdale,Wisconsin,WI,US,42.9717,-89.0318,216
Doylestown,Wisconsin,WI,US,43.4276,-89.1457,292
Wyeville,Wisconsin,WI,US,44.0279,-90.3861,143
Cassville,Wisconsin,WI,US,42.715,-90.989,904
Wauwatosa,Wisconsin,WI,US,43.0615,-88.0347,48277
Diaperville,Wisconsin,WI,US,46.606,-90.7101,60
Casco,Wisconsin,WI,US,44.5558,-87.6198,584
Theresa,Wisconsin,WI,US,43.5164,-88.454,1213
Centuria,Wisconsin,WI,US,45.4497,-92.5579,914
Caledonia,Wisconsin,WI,US,42.7986,-87.8762,25002
Mole Lake,Wisconsin,WI,US,45.4859,-88.9823,552
Edgar,Wisconsin,WI,US,44.9229,-89.9626,1455
Nekoosa,Wisconsin,WI,US,44.3135,-89.9073,2429
Sullivan,Wisconsin,WI,US,43.0118,-88.5903,672
Greenleaf,Wisconsin,WI,US,44.317,-88.0972,946
Tony,Wisconsin,WI,US,45.4804,-90.9971,103
Junction City,Wisconsin,WI,US,44.593,-89.7679,431
Bohners Lake,Wisconsin,WI,US,42.6241,-88.2879,2094
Rockland,Wisconsin,WI,US,43.9075,-90.9165,647
Boscobel,Wisconsin,WI,US,43.1436,-90.6953,3148
Chili,Wisconsin,WI,US,44.6296,-90.3583,255
Kennan,Wisconsin,WI,US,45.5301,-90.5868,122
Plover,Wisconsin,WI,US,44.4614,-89.5382,12772
Hatfield,Wisconsin,WI,US,44.4164,-90.7409,177
Bell Center,Wisconsin,WI,US,43.2916,-90.8256,112
Antigo,Wisconsin,WI,US,45.1415,-89.1556,7708
Rome,Wisconsin,WI,US,42.9823,-88.6389,782
Spencer,Wisconsin,WI,US,44.7544,-90.2983,1910
Lake Delton,Wisconsin,WI,US,43.5932,-89.7841,5624
Hixton,Wisconsin,WI,US,44.3831,-91.0149,422
Cadott,Wisconsin,WI,US,44.9502,-91.1532,1428
Hingham,Wisconsin,WI,US,43.6465,-87.9151,959
Cornell,Wisconsin,WI,US,45.1632,-91.1497,1419
Port Wing,Wisconsin,WI,US,46.7756,-91.3807,172
Oakdale,Wisconsin,WI,US,43.962,-90.3789,292
Sussex,Wisconsin,WI,US,43.134,-88.2231,10819
Galesville,Wisconsin,WI,US,44.0839,-91.358,1577
Dellwood,Wisconsin,WI,US,43.9545,-89.9341,646
Middle Village,Wisconsin,WI,US,44.9347,-88.7334,245
Cochrane,Wisconsin,WI,US,44.2281,-91.8391,420
Muskego,Wisconsin,WI,US,42.886,-88.1291,24996
Greenwood,Wisconsin,WI,US,44.7655,-90.5988,1005
Whitefish Bay,Wisconsin,WI,US,43.1132,-87.9003,13950
Altoona,Wisconsin,WI,US,44.803,-91.4387,7680
Vesper,Wisconsin,WI,US,44.4805,-89.9676,558
Rice Lake,Wisconsin,WI,US,45.4863,-91.7447,9393
Columbus,Wisconsin,WI,US,43.3354,-89.03,6675
Campbellsport,Wisconsin,WI,US,43.5976,-88.2813,1970
New Post,Wisconsin,WI,US,45.8965,-91.193,258
Warrens,Wisconsin,WI,US,44.1287,-90.5157,349
Marshall,Wisconsin,WI,US,43.1726,-89.0614,3944
Allenton,Wisconsin,WI,US,43.4204,-88.3443,982
Brodhead,Wisconsin,WI,US,42.6168,-89.3756,3463
Elk Mound,Wisconsin,WI,US,44.8744,-91.6863,875
Clam Lake,Wisconsin,WI,US,46.1579,-90.9056,21
Germantown,Wisconsin,WI,US,43.2343,-88.1217,19982
Bloomington,Wisconsin,WI,US,42.8933,-90.9265,707
Crivitz,Wisconsin,WI,US,45.2337,-88.0066,945
Wittenberg,Wisconsin,WI,US,44.8269,-89.1664,1017
Danbury,Wisconsin,WI,US,46.0088,-92.3777,149
Drummond,Wisconsin,WI,US,46.3436,-91.25,119
Gilmanton,Wisconsin,WI,US,44.4738,-91.6785,131
Mazomanie,Wisconsin,WI,US,43.1731,-89.7954,3032
Poynette,Wisconsin,WI,US,43.3922,-89.4058,2494
Fairchild,Wisconsin,WI,US,44.6036,-90.9577,589
Elm Grove,Wisconsin,WI,US,43.0479,-88.0867,6170
Laona,Wisconsin,WI,US,45.5597,-88.6697,415
Plymouth,Wisconsin,WI,US,43.7451,-87.9656,8900
Port Washington,Wisconsin,WI,US,43.3847,-87.8852,11762
Krakow,Wisconsin,WI,US,44.7585,-88.2611,381
Howards Grove,Wisconsin,WI,US,43.8261,-87.8232,3265
Spring Green,Wisconsin,WI,US,43.1776,-90.0688,1638
Mount Hope,Wisconsin,WI,US,42.9697,-90.8596,221
Omro,Wisconsin,WI,US,44.0391,-88.7378,3420
Kaukauna,Wisconsin,WI,US,44.2778,-88.2645,16086
Woodman,Wisconsin,WI,US,43.0925,-90.7977,130
Bellevue,Wisconsin,WI,US,44.4593,-87.9554,15687
Bluffview,Wisconsin,WI,US,43.3641,-89.773,531
Legend Lake,Wisconsin,WI,US,44.8909,-88.544,1269
Cambria,Wisconsin,WI,US,43.5416,-89.1108,753
Fort Atkinson,Wisconsin,WI,US,42.9253,-88.8441,21299
Bay City,Wisconsin,WI,US,44.5872,-92.4574,496
River Hills,Wisconsin,WI,US,43.1717,-87.9353,1590
Loyal,Wisconsin,WI,US,44.7366,-90.4959,1238
Fitchburg,Wisconsin,WI,US,42.9859,-89.4255,29485
Norwalk,Wisconsin,WI,US,43.8342,-90.6269,631
Chippewa Falls,Wisconsin,WI,US,44.9359,-91.3902,14035
Burlington,Wisconsin,WI,US,42.6749,-88.2724,24687
Appleton,Wisconsin,WI,US,44.2774,-88.3894,222222
Edgerton,Wisconsin,WI,US,42.8386,-89.0698,7363
Scandinavia,Wisconsin,WI,US,44.4608,-89.146,354
Sturtevant,Wisconsin,WI,US,42.6995,-87.9019,6967
Knowlton,Wisconsin,WI,US,44.7189,-89.6803,140
Elroy,Wisconsin,WI,US,43.742,-90.2705,1365
Rosholt,Wisconsin,WI,US,44.63,-89.3052,488
Chilton,Wisconsin,WI,US,44.0293,-88.1625,3480
Barneveld,Wisconsin,WI,US,43.0117,-89.8968,1239
Arcadia,Wisconsin,WI,US,44.2486,-91.4921,3120
Coon Valley,Wisconsin,WI,US,43.7024,-91.0112,784
Franklin,Wisconsin,WI,US,42.8854,-88.0104,36143
Blue River,Wisconsin,WI,US,43.1844,-90.5718,419
Montreal,Wisconsin,WI,US,46.4312,-90.2382,760
West Bend,Wisconsin,WI,US,43.4184,-88.1823,69577
Elmwood Park,Wisconsin,WI,US,42.6917,-87.8223,509
Athens,Wisconsin,WI,US,45.0349,-90.0792,1088
New Richmond,Wisconsin,WI,US,45.1229,-92.5339,8859
Baileys Harbor,Wisconsin,WI,US,45.0659,-87.133,209
Merrimac,Wisconsin,WI,US,43.3741,-89.6272,443
Oregon,Wisconsin,WI,US,42.9252,-89.3887,12448
Downing,Wisconsin,WI,US,45.0498,-92.1243,261
Catawba,Wisconsin,WI,US,45.5371,-90.5335,102
Bowler,Wisconsin,WI,US,44.8627,-88.9814,289
Wisconsin Rapids,Wisconsin,WI,US,44.3928,-89.8265,28277
Tustin,Wisconsin,WI,US,44.1698,-88.896,122
Cuba City,Wisconsin,WI,US,42.6036,-90.4318,2043
Webster,Wisconsin,WI,US,45.8798,-92.3628,622
Lone Rock,Wisconsin,WI,US,43.1857,-90.2012,851
Pittsville,Wisconsin,WI,US,44.439,-90.1301,838
Shorewood Hills,Wisconsin,WI,US,43.0788,-89.447,2024
Fox Point,Wisconsin,WI,US,43.1581,-87.9013,6670
Winter,Wisconsin,WI,US,45.8221,-91.013,300
Lake Geneva,Wisconsin,WI,US,42.5825,-88.4282,15078
Coleman,Wisconsin,WI,US,45.0695,-88.0348,696
Springfield,Wisconsin,WI,US,42.6407,-88.4135,202
Marengo,Wisconsin,WI,US,46.4219,-90.8081,127
Siren,Wisconsin,WI,US,45.7826,-92.3823,776
Argonne,Wisconsin,WI,US,45.6582,-88.8777,185
Packwaukee,Wisconsin,WI,US,43.7653,-89.4599,168
Dodgeville,Wisconsin,WI,US,42.966,-90.1297,4811
Marathon City,Wisconsin,WI,US,44.9379,-89.8436,1507
St. Joseph,Wisconsin,WI,US,43.7855,-91.0436,516
Cascade,Wisconsin,WI,US,43.6598,-88.0075,699
Turtle Lake,Wisconsin,WI,US,45.3934,-92.1451,1011
Green Valley,Wisconsin,WI,US,44.7969,-88.2682,87
Beloit,Wisconsin,WI,US,42.523,-89.0184,63498
Bear Creek,Wisconsin,WI,US,44.5313,-88.7275,443
Glen Haven,Wisconsin,WI,US,42.8313,-91.0633,86
South Milwaukee,Wisconsin,WI,US,42.912,-87.8627,20988
Hager City,Wisconsin,WI,US,44.6012,-92.5336,283
Saxon,Wisconsin,WI,US,46.4941,-90.41,76
Green Bay,Wisconsin,WI,US,44.515,-87.9896,208625
Browntown,Wisconsin,WI,US,42.5788,-89.7894,273
Barron,Wisconsin,WI,US,45.4015,-91.8476,3190
Prairie du Sac,Wisconsin,WI,US,43.292,-89.7352,8523
Suamico,Wisconsin,WI,US,44.6352,-88.0664,12816
Hancock,Wisconsin,WI,US,44.1333,-89.5209,406
Ettrick,Wisconsin,WI,US,44.1695,-91.265,517
Ridgeland,Wisconsin,WI,US,45.2025,-91.8965,275
Stockholm,Wisconsin,WI,US,44.4852,-92.2633,64
Weyauwega,Wisconsin,WI,US,44.324,-88.9332,1817
Cross Plains,Wisconsin,WI,US,43.1146,-89.6475,4241
Jackson,Wisconsin,WI,US,43.3244,-88.1668,7107
Barronett,Wisconsin,WI,US,45.6363,-91.9942,137
Okauchee Lake,Wisconsin,WI,US,43.1248,-88.4408,4399
Cobb,Wisconsin,WI,US,42.9661,-90.3296,451
Eagle,Wisconsin,WI,US,42.879,-88.4696,2076
Eagle Lake,Wisconsin,WI,US,42.7014,-88.1291,1149
Birch Hill,Wisconsin,WI,US,46.5209,-90.5555,327
Tomahawk,Wisconsin,WI,US,45.4746,-89.7228,2737
Ripon,Wisconsin,WI,US,43.8436,-88.8386,8008
Gordon,Wisconsin,WI,US,46.2409,-91.7995,213
Merrill,Wisconsin,WI,US,45.1818,-89.7004,9750
Potter,Wisconsin,WI,US,44.1202,-88.0991,242
Lac La Belle,Wisconsin,WI,US,43.1428,-88.5302,292
Cottage Grove,Wisconsin,WI,US,43.0908,-89.2026,6939
Ashwaubenon,Wisconsin,WI,US,44.4796,-88.0889,17271
Balsam Lake,Wisconsin,WI,US,45.4585,-92.4528,981
Curtiss,Wisconsin,WI,US,44.9521,-90.435,212
Sandy Hook,Wisconsin,WI,US,42.5466,-90.6168,405
Glenbeulah,Wisconsin,WI,US,43.7982,-88.0465,459
Taycheedah,Wisconsin,WI,US,43.8122,-88.3914,908
Hartford,Wisconsin,WI,US,43.322,-88.3782,15064
St. Cloud,Wisconsin,WI,US,43.8245,-88.1687,463
Milton,Wisconsin,WI,US,42.7751,-88.943,5581
West Salem,Wisconsin,WI,US,43.8989,-91.0882,5026
Tigerton,Wisconsin,WI,US,44.7409,-89.0459,709
Washburn,Wisconsin,WI,US,46.6769,-90.9017,2048
Adell,Wisconsin,WI,US,43.6214,-87.9482,511
Wausaukee,Wisconsin,WI,US,45.378,-87.9552,561
Phillips,Wisconsin,WI,US,45.6958,-90.4018,1361
Goodman,Wisconsin,WI,US,45.6231,-88.3518,237
Jefferson,Wisconsin,WI,US,43.0044,-88.8084,8015
Spring Valley,Wisconsin,WI,US,44.85,-92.2443,1372
White Lake,Wisconsin,WI,US,45.1617,-88.7704,347
Verona,Wisconsin,WI,US,42.9884,-89.5381,13107
Fox Lake,Wisconsin,WI,US,43.5618,-88.913,1460
Valders,Wisconsin,WI,US,44.0696,-87.8859,925
Wauzeka,Wisconsin,WI,US,43.0851,-90.8995,728
Hurley,Wisconsin,WI,US,46.4462,-90.1983,1441
Madison,Wisconsin,WI,US,43.0827,-89.3923,439553
West Allis,Wisconsin,WI,US,43.0068,-88.0296,59934
Maine,Wisconsin,WI,US,45.0503,-89.6823,2348
Hustler,Wisconsin,WI,US,43.8773,-90.2658,189
Amery,Wisconsin,WI,US,45.3045,-92.3635,2754
Caroline,Wisconsin,WI,US,44.722,-88.8948,228
Reeseville,Wisconsin,WI,US,43.3062,-88.8445,679
Iron River,Wisconsin,WI,US,46.567,-91.407,764
Bagley,Wisconsin,WI,US,42.9015,-91.0974,374
Gratiot,Wisconsin,WI,US,42.5801,-90.0235,233
Osceola,Wisconsin,WI,US,45.3194,-92.6935,3508
Neopit,Wisconsin,WI,US,44.9877,-88.8227,908
New Glarus,Wisconsin,WI,US,42.813,-89.6337,2152
Stanley,Wisconsin,WI,US,44.9597,-90.9424,3499
Stetsonville,Wisconsin,WI,US,45.0772,-90.3143,520
Montello,Wisconsin,WI,US,43.7938,-89.3336,1445
Prentice,Wisconsin,WI,US,45.5408,-90.2898,612
Mondovi,Wisconsin,WI,US,44.5712,-91.6667,2632
Herbster,Wisconsin,WI,US,46.8421,-91.2419,87
Clayton,Wisconsin,WI,US,45.326,-92.171,550
Como,Wisconsin,WI,US,42.6114,-88.4914,2479
Brown Deer,Wisconsin,WI,US,43.1743,-87.975,11964
Woodruff,Wisconsin,WI,US,45.8946,-89.6913,605
Boaz,Wisconsin,WI,US,43.3299,-90.5277,150
Marquette,Wisconsin,WI,US,43.7464,-89.1384,152
Endeavor,Wisconsin,WI,US,43.7163,-89.4695,461
Mauston,Wisconsin,WI,US,43.7995,-90.0775,4371
Oliver,Wisconsin,WI,US,46.6493,-92.1883,410
Howard,Wisconsin,WI,US,44.5703,-88.0921,19634
Port Edwards,Wisconsin,WI,US,44.3484,-89.854,1778
Fox Crossing,Wisconsin,WI,US,44.2236,-88.4787,10980
Westboro,Wisconsin,WI,US,45.3608,-90.2934,145
Gays Mills,Wisconsin,WI,US,43.322,-90.8489,518
Sobieski,Wisconsin,WI,US,44.7226,-88.0659,366
Spooner,Wisconsin,WI,US,45.8271,-91.886,2588
Elderon,Wisconsin,WI,US,44.7843,-89.248,179
Big Bend,Wisconsin,WI,US,42.9023,-88.2122,1378
Lannon,Wisconsin,WI,US,43.1522,-88.1604,1200
Glen Flora,Wisconsin,WI,US,45.497,-90.8935,87
Eureka,Wisconsin,WI,US,44.0073,-88.8426,560
Poplar,Wisconsin,WI,US,46.5828,-91.7836,602
Sturgeon Bay,Wisconsin,WI,US,44.8228,-87.3661,8405
Tainter Lake,Wisconsin,WI,US,44.9882,-91.8437,2638
Abbotsford,Wisconsin,WI,US,44.9433,-90.3163,3888
Harrison,Wisconsin,WI,US,44.1935,-88.2941,9941
Darien,Wisconsin,WI,US,42.6007,-88.7129,1594
Glidden,Wisconsin,WI,US,46.1346,-90.5721,380
Sheldon,Wisconsin,WI,US,45.3119,-90.9567,218
Kimberly,Wisconsin,WI,US,44.267,-88.3377,6790
Greenbush,Wisconsin,WI,US,43.7778,-88.0902,135
Iola,Wisconsin,WI,US,44.5091,-89.1248,1243
Yuba,Wisconsin,WI,US,43.5364,-90.4267,69
North Fond du Lac,Wisconsin,WI,US,43.8107,-88.4861,5070
Allouez,Wisconsin,WI,US,44.4721,-88.0261,13886
Dunbar,Wisconsin,WI,US,45.6471,-88.1754,74
Auburndale,Wisconsin,WI,US,44.6266,-90.0144,671
Soldiers Grove,Wisconsin,WI,US,43.3921,-90.7735,550
La Farge,Wisconsin,WI,US,43.5782,-90.6381,763
McFarland,Wisconsin,WI,US,43.0196,-89.2868,8449
Waumandee,Wisconsin,WI,US,44.3024,-91.7051,77
Potosi,Wisconsin,WI,US,42.6875,-90.7107,670
Fall River,Wisconsin,WI,US,43.3856,-89.0456,1704
Cambridge,Wisconsin,WI,US,43.0071,-89.0214,2685
Gresham,Wisconsin,WI,US,44.8478,-88.7856,566
Zoar,Wisconsin,WI,US,45.0178,-88.8945,94
Wrightstown,Wisconsin,WI,US,44.3263,-88.1758,3040
Two Rivers,Wisconsin,WI,US,44.1564,-87.5824,11153
Somerset,Wisconsin,WI,US,45.1269,-92.6756,2743
Delavan Lake,Wisconsin,WI,US,42.5987,-88.6177,2467
Clintonville,Wisconsin,WI,US,44.6221,-88.7513,4285
Stoddard,Wisconsin,WI,US,43.6622,-91.2181,822
Benton,Wisconsin,WI,US,42.5702,-90.3835,947
Wisconsin Dells,Wisconsin,WI,US,43.6336,-89.7752,2978
Rhinelander,Wisconsin,WI,US,45.636,-89.4256,8738
Redgranite,Wisconsin,WI,US,44.0513,-89.1058,2138
Taylor,Wisconsin,WI,US,44.3217,-91.1206,470
Sextonville,Wisconsin,WI,US,43.2797,-90.2922,371
Rock Springs,Wisconsin,WI,US,43.479,-89.9177,363
Angelica,Wisconsin,WI,US,44.675,-88.3215,99
Franks Field,Wisconsin,WI,US,46.5522,-90.5989,173
Coloma,Wisconsin,WI,US,44.0386,-89.531,446
Fond du Lac,Wisconsin,WI,US,43.7718,-88.4397,54629
Dousman,Wisconsin,WI,US,43.0088,-88.476,2314
Thorp,Wisconsin,WI,US,44.958,-90.8023,1623
Cameron,Wisconsin,WI,US,45.4057,-91.7423,1784
Rib Lake,Wisconsin,WI,US,45.3196,-90.2031,879
Richland Center,Wisconsin,WI,US,43.3403,-90.384,4841
Somers,Wisconsin,WI,US,42.6411,-87.8919,8289
Osseo,Wisconsin,WI,US,44.5795,-91.212,1675
Frederic,Wisconsin,WI,US,45.6548,-92.4647,1103
Oakfield,Wisconsin,WI,US,43.6843,-88.5476,1070
Alma,Wisconsin,WI,US,44.3366,-91.9222,715
Cable,Wisconsin,WI,US,46.2013,-91.2933,207
Potter Lake,Wisconsin,WI,US,42.8196,-88.3487,1174
Bangor,Wisconsin,WI,US,43.8937,-90.9935,1471
Kenosha,Wisconsin,WI,US,42.5864,-87.8762,124888
Marion,Wisconsin,WI,US,44.6744,-88.8902,1199
Kiel,Wisconsin,WI,US,43.9167,-88.0266,6974
Dickeyville,Wisconsin,WI,US,42.6248,-90.5914,1024
Dalton,Wisconsin,WI,US,43.6562,-89.2069,239
Augusta,Wisconsin,WI,US,44.6784,-91.1203,1514
Boyceville,Wisconsin,WI,US,45.0427,-92.0384,1096
Blanchardville,Wisconsin,WI,US,42.8094,-89.8606,798
Merrillan,Wisconsin,WI,US,44.4504,-90.8355,527
Milltown,Wisconsin,WI,US,45.5261,-92.5015,882
Random Lake,Wisconsin,WI,US,43.5541,-87.9548,1573
Racine,Wisconsin,WI,US,42.7274,-87.8135,131467
Prairie Farm,Wisconsin,WI,US,45.2368,-91.9805,443
Pleasant Prairie,Wisconsin,WI,US,42.5266,-87.8895,20762
Arena,Wisconsin,WI,US,43.1636,-89.9104,827
Conrath,Wisconsin,WI,US,45.3842,-91.0357,93
Blue Mounds,Wisconsin,WI,US,43.018,-89.8265,971
West Milwaukee,Wisconsin,WI,US,43.0124,-87.971,4157
Luck,Wisconsin,WI,US,45.5718,-92.4667,1063
Cataract,Wisconsin,WI,US,44.0867,-90.8384,168
Florence,Wisconsin,WI,US,45.925,-88.2525,562
Keshena,Wisconsin,WI,US,44.8697,-88.6002,1400
Chain O' Lakes,Wisconsin,WI,US,44.3318,-89.1671,967
Linden,Wisconsin,WI,US,42.9186,-90.2742,534
North Hudson,Wisconsin,WI,US,44.9976,-92.7559,3798
Genoa City,Wisconsin,WI,US,42.5065,-88.3193,3010
Withee,Wisconsin,WI,US,44.9508,-90.5989,476
Avoca,Wisconsin,WI,US,43.1906,-90.326,628
Rosendale,Wisconsin,WI,US,43.808,-88.6731,1036
Egg Harbor,Wisconsin,WI,US,45.0528,-87.2826,202
Eden,Wisconsin,WI,US,43.6928,-88.3642,900
Lynxville,Wisconsin,WI,US,43.2493,-91.0464,127
Forest Junction,Wisconsin,WI,US,44.2139,-88.1496,759
Niagara,Wisconsin,WI,US,45.7801,-87.9991,1553
Sayner,Wisconsin,WI,US,45.991,-89.5332,179
Solon Springs,Wisconsin,WI,US,46.3495,-91.8208,594
Boulder Junction,Wisconsin,WI,US,46.1126,-89.6452,126
Brice Prairie,Wisconsin,WI,US,43.9375,-91.3073,2045
Jump River,Wisconsin,WI,US,45.3555,-90.7966,20
Kellnersville,Wisconsin,WI,US,44.2253,-87.8021,322
Navarino,Wisconsin,WI,US,44.6108,-88.4936,162
Kewaskum,Wisconsin,WI,US,43.5177,-88.2306,4120
Argyle,Wisconsin,WI,US,42.7013,-89.8659,822
Chaseburg,Wisconsin,WI,US,43.6598,-91.097,296
Darlington,Wisconsin,WI,US,42.678,-90.1189,2363
Milwaukee,Wisconsin,WI,US,43.0642,-87.9673,1377808
Mount Horeb,Wisconsin,WI,US,43.006,-89.7317,7407
Hortonville,Wisconsin,WI,US,44.3368,-88.6361,2767
Lake Mills,Wisconsin,WI,US,43.0774,-88.9055,6799
Edmund,Wisconsin,WI,US,42.9662,-90.2644,167
Lowell,Wisconsin,WI,US,43.3363,-88.8183,325
Oxford,Wisconsin,WI,US,43.7798,-89.5625,600
St. Francis,Wisconsin,WI,US,42.9716,-87.8729,9442
Elkhart Lake,Wisconsin,WI,US,43.8321,-88.0147,1015
Star Prairie,Wisconsin,WI,US,45.1975,-92.5321,560
Genoa,Wisconsin,WI,US,43.5734,-91.2261,263
Friendship,Wisconsin,WI,US,43.972,-89.8202,653
Medford,Wisconsin,WI,US,45.1366,-90.3437,4022
Pardeeville,Wisconsin,WI,US,43.5359,-89.301,2067
Randolph,Wisconsin,WI,US,43.5396,-89.0029,1762
Forestville,Wisconsin,WI,US,44.6907,-87.4787,410
Beaver Dam,Wisconsin,WI,US,43.4688,-88.8311,18003
Kieler,Wisconsin,WI,US,42.5823,-90.6051,433
Elcho,Wisconsin,WI,US,45.4353,-89.1853,299
Belleville,Wisconsin,WI,US,42.8643,-89.5402,2425
Post Lake,Wisconsin,WI,US,45.4352,-89.0921,254
Little Sturgeon,Wisconsin,WI,US,44.8422,-87.5743,219
Ellison Bay,Wisconsin,WI,US,45.2551,-87.0729,198
Mount Pleasant,Wisconsin,WI,US,42.7129,-87.8875,26525
Hebron,Wisconsin,WI,US,42.9232,-88.6916,165
Arlington,Wisconsin,WI,US,43.335,-89.3725,814
King,Wisconsin,WI,US,44.34,-89.1231,1788
Knapp,Wisconsin,WI,US,44.9514,-92.0769,458
Prescott,Wisconsin,WI,US,44.7522,-92.7882,4166
Dane,Wisconsin,WI,US,43.2499,-89.4996,1136
Lake Sherwood,Wisconsin,WI,US,44.2057,-89.7939,333
Buffalo City,Wisconsin,WI,US,44.2237,-91.8654,971
Delafield,Wisconsin,WI,US,43.072,-88.3913,7526
Millston,Wisconsin,WI,US,44.1885,-90.6447,102
Mountain,Wisconsin,WI,US,45.1864,-88.4681,286
Wilson,Wisconsin,WI,US,44.9586,-92.1705,186
Rochester,Wisconsin,WI,US,42.7338,-88.2489,3807
Glenwood City,Wisconsin,WI,US,45.057,-92.1714,1213
Readstown,Wisconsin,WI,US,43.4485,-90.759,415
Sherwood,Wisconsin,WI,US,44.1765,-88.2756,2985
Waupaca,Wisconsin,WI,US,44.3508,-89.0721,7521
Brooklyn,Wisconsin,WI,US,42.8524,-89.3723,1456
Waubeka,Wisconsin,WI,US,43.4702,-87.9921,753
Green Lake,Wisconsin,WI,US,43.8441,-88.956,926
Radisson,Wisconsin,WI,US,45.7684,-91.2178,230
Ogema,Wisconsin,WI,US,45.451,-90.2927,152
Cazenovia,Wisconsin,WI,US,43.5237,-90.1991,319
Mount Calvary,Wisconsin,WI,US,43.8263,-88.2461,748
Mosinee,Wisconsin,WI,US,44.7874,-89.6839,4002
Downsville,Wisconsin,WI,US,44.7708,-91.926,106
Tunnel City,Wisconsin,WI,US,44.005,-90.5679,148
Hazel Green,Wisconsin,WI,US,42.5341,-90.4362,1233
Colby,Wisconsin,WI,US,44.9107,-90.3159,1831
Ingram,Wisconsin,WI,US,45.5056,-90.8137,74
Newald,Wisconsin,WI,US,45.7396,-88.7005,145
Strum,Wisconsin,WI,US,44.5532,-91.3876,1097
Lake Ivanhoe,Wisconsin,WI,US,42.58,-88.3415,515
Lyndon Station,Wisconsin,WI,US,43.7088,-89.8937,482
Winneconne,Wisconsin,WI,US,44.1112,-88.7114,3713
Baldwin,Wisconsin,WI,US,44.954,-92.3709,5894
Diamond Bluff,Wisconsin,WI,US,44.6489,-92.6189,190
Grand Marsh,Wisconsin,WI,US,43.8852,-89.7072,159
Pembine,Wisconsin,WI,US,45.6367,-87.9918,123
Union Grove,Wisconsin,WI,US,42.6863,-88.0495,7033
Hales Corners,Wisconsin,WI,US,42.941,-88.0491,7642
Winchester,Wisconsin,WI,US,44.1982,-88.6599,637
Oostburg,Wisconsin,WI,US,43.6237,-87.7888,2829
Ixonia,Wisconsin,WI,US,43.1396,-88.5963,1931
Necedah,Wisconsin,WI,US,44.0233,-90.0717,916
Newburg,Wisconsin,WI,US,43.4321,-88.0477,1227
Friesland,Wisconsin,WI,US,43.5886,-89.0669,346
Shorewood,Wisconsin,WI,US,43.0914,-87.8864,13338
Dorchester,Wisconsin,WI,US,45.0025,-90.3308,868
Wheeler,Wisconsin,WI,US,45.0441,-91.9037,336
Park Falls,Wisconsin,WI,US,45.9348,-90.4463,2254
Brillion,Wisconsin,WI,US,44.1755,-88.0708,2942
Manawa,Wisconsin,WI,US,44.4613,-88.9204,1294
Weyerhaeuser,Wisconsin,WI,US,45.4251,-91.4145,218
Steuben,Wisconsin,WI,US,43.1833,-90.8569,123
Crandon,Wisconsin,WI,US,45.5686,-88.8973,1844
Haugen,Wisconsin,WI,US,45.6078,-91.7789,278
Pound,Wisconsin,WI,US,45.0956,-88.0334,362
Horicon,Wisconsin,WI,US,43.4453,-88.6403,3451
Owen,Wisconsin,WI,US,44.9485,-90.5621,934
Belmont,Wisconsin,WI,US,42.738,-90.3347,991
Rio,Wisconsin,WI,US,43.4497,-89.2388,1042
Algoma,Wisconsin,WI,US,44.6057,-87.4465,2988
Monroe,Wisconsin,WI,US,42.603,-89.6381,10658
Albany,Wisconsin,WI,US,42.7069,-89.4367,1002
Eland,Wisconsin,WI,US,44.867,-89.209,196
Brule,Wisconsin,WI,US,46.5589,-91.5712,224
Viola,Wisconsin,WI,US,43.507,-90.6735,676
Luxemburg,Wisconsin,WI,US,44.5449,-87.7065,2558
Hollandale,Wisconsin,WI,US,42.8756,-89.9342,282
Blair,Wisconsin,WI,US,44.3083,-91.2425,1369
Monticello,Wisconsin,WI,US,42.7456,-89.5899,1205
Williams Bay,Wisconsin,WI,US,42.577,-88.5432,2597
Sheboygan,Wisconsin,WI,US,43.7403,-87.7316,69920
Rudolph,Wisconsin,WI,US,44.4972,-89.8018,424
Rib Mountain,Wisconsin,WI,US,44.9196,-89.6771,6068
St. Croix Falls,Wisconsin,WI,US,45.4101,-92.6268,2047
Stevens Point,Wisconsin,WI,US,44.5241,-89.5508,43520
Sparta,Wisconsin,WI,US,43.9376,-90.813,10054
Plainfield,Wisconsin,WI,US,44.2175,-89.497,837
Fremont,Wisconsin,WI,US,44.2602,-88.8715,657
Tomah,Wisconsin,WI,US,43.988,-90.4996,9275
Waukesha,Wisconsin,WI,US,43.0087,-88.2464,72489
Adams,Wisconsin,WI,US,43.9554,-89.8169,1866
Dyckesville,Wisconsin,WI,US,44.6404,-87.7656,520
La Crosse,Wisconsin,WI,US,43.8241,-91.2268,101886
Trempealeau,Wisconsin,WI,US,44.0029,-91.4285,1630
Brookfield,Wisconsin,WI,US,43.064,-88.1231,38045
Suring,Wisconsin,WI,US,45.0007,-88.3693,524
Hilbert,Wisconsin,WI,US,44.1415,-88.1611,1089
Viroqua,Wisconsin,WI,US,43.5582,-90.8863,4177
Clinton,Wisconsin,WI,US,42.5574,-88.8679,2127
Greenfield,Wisconsin,WI,US,42.9619,-88.0051,36827
Middleton,Wisconsin,WI,US,43.1064,-89.5058,19660
Ontario,Wisconsin,WI,US,43.7222,-90.5941,550
Muscoda,Wisconsin,WI,US,43.1873,-90.4334,1262
Browns Lake,Wisconsin,WI,US,42.6908,-88.2308,2223
Lake Arrowhead,Wisconsin,WI,US,44.203,-89.8388,826
Boyd,Wisconsin,WI,US,44.9533,-91.0398,538
Lebanon,Wisconsin,WI,US,43.2588,-88.6294,236
Platteville,Wisconsin,WI,US,42.7279,-90.4675,12470
Cudahy,Wisconsin,WI,US,42.9467,-87.8641,18282
Lime Ridge,Wisconsin,WI,US,43.4676,-90.1577,164
Chelsea,Wisconsin,WI,US,45.2926,-90.3054,101
Janesville,Wisconsin,WI,US,42.6855,-89.0136,70518
Abrams,Wisconsin,WI,US,44.7796,-88.0605,432
French Island,Wisconsin,WI,US,43.8592,-91.2614,4370
Lauderdale Lakes,Wisconsin,WI,US,42.7709,-88.5778,1201
Mellen,Wisconsin,WI,US,46.324,-90.6607,690
Hayward,Wisconsin,WI,US,46.0094,-91.4826,2597
Dale,Wisconsin,WI,US,44.2757,-88.6729,550
Lena,Wisconsin,WI,US,44.953,-88.0476,542
Colfax,Wisconsin,WI,US,44.997,-91.7264,1144
Northport,Wisconsin,WI,US,44.4082,-88.8038,510
North Freedom,Wisconsin,WI,US,43.459,-89.8603,701
Fontana-on-Geneva Lake,Wisconsin,WI,US,42.5453,-88.5701,1713
Hanover,Wisconsin,WI,US,42.6388,-89.1712,165
La Valle,Wisconsin,WI,US,43.5831,-90.1304,367
Watertown,Wisconsin,WI,US,43.1893,-88.7285,23145
Summit,Wisconsin,WI,US,43.0504,-88.4815,4909
Reserve,Wisconsin,WI,US,45.8338,-91.3545,370
Mount Sterling,Wisconsin,WI,US,43.3163,-90.9292,200
Whiting,Wisconsin,WI,US,44.4907,-89.56,1701
Lake Wazeecha,Wisconsin,WI,US,44.3709,-89.7551,2466
Eagle River,Wisconsin,WI,US,45.925,-89.256,1498
Mercer,Wisconsin,WI,US,46.1636,-90.0527,652
Oconto Falls,Wisconsin,WI,US,44.8738,-88.1444,2556
Minocqua,Wisconsin,WI,US,45.8788,-89.7032,319
Marinette,Wisconsin,WI,US,45.0869,-87.6327,18791
Amberg,Wisconsin,WI,US,45.5062,-87.9874,211
Ironton,Wisconsin,WI,US,43.5452,-90.1436,253
Aniwa,Wisconsin,WI,US,45.0117,-89.2089,250
Waterford,Wisconsin,WI,US,42.7646,-88.2158,5487
Shell Lake,Wisconsin,WI,US,45.7322,-91.9033,1328
Arpin,Wisconsin,WI,US,44.5393,-90.0315,313
Shullsburg,Wisconsin,WI,US,42.5733,-90.2347,1207
Nichols,Wisconsin,WI,US,44.5672,-88.4677,275
Ephraim,Wisconsin,WI,US,45.1589,-87.1667,280
Juda,Wisconsin,WI,US,42.59,-89.5092,280
Springbrook,Wisconsin,WI,US,45.9468,-91.689,76
Ogdensburg,Wisconsin,WI,US,44.4535,-89.0316,177
Big Falls,Wisconsin,WI,US,44.6175,-89.0166,61
Grand View,Wisconsin,WI,US,46.3681,-91.1035,101
Stockbridge,Wisconsin,WI,US,44.0717,-88.3105,622
Collins,Wisconsin,WI,US,44.0827,-87.9839,167
Oshkosh,Wisconsin,WI,US,44.0228,-88.5617,75154
Trego,Wisconsin,WI,US,45.9049,-91.8286,175
Hobart,Wisconsin,WI,US,44.4966,-88.1602,8896
Loganville,Wisconsin,WI,US,43.4384,-90.0369,301
Ashland,Wisconsin,WI,US,46.5801,-90.8715,6944
De Soto,Wisconsin,WI,US,43.4283,-91.1963,283
Sheboygan Falls,Wisconsin,WI,US,43.729,-87.8266,7928
Holmen,Wisconsin,WI,US,43.9701,-91.2671,9887
Hudson,Wisconsin,WI,US,44.9639,-92.7316,24133
Butler,Wisconsin,WI,US,43.1084,-88.0714,1816
Pine River,Wisconsin,WI,US,44.1483,-89.0757,159
Wind Lake,Wisconsin,WI,US,42.823,-88.1573,5309
Westby,Wisconsin,WI,US,43.653,-90.8584,2248
Cornucopia,Wisconsin,WI,US,46.8567,-91.1082,96
Pepin,Wisconsin,WI,US,44.4423,-92.1483,782
Wiota,Wisconsin,WI,US,42.6367,-89.9493,97
Portage,Wisconsin,WI,US,43.5489,-89.4658,10540
Lohrville,Wisconsin,WI,US,44.0382,-89.1201,392
Butte des Morts,Wisconsin,WI,US,44.1059,-88.6564,873
Fredonia,Wisconsin,WI,US,43.4715,-87.9489,2239
Holcombe,Wisconsin,WI,US,45.2261,-91.1217,160
Eau Claire,Wisconsin,WI,US,44.82,-91.4951,107068
Butternut,Wisconsin,WI,US,46.0138,-90.4988,354
Superior,Wisconsin,WI,US,46.6941,-92.0823,26194
Deer Park,Wisconsin,WI,US,45.1887,-92.3879,216
Gotham,Wisconsin,WI,US,43.2225,-90.297,237
Chetek,Wisconsin,WI,US,45.316,-91.6533,2739
Merton,Wisconsin,WI,US,43.1423,-88.3088,3679
Mineral Point,Wisconsin,WI,US,42.8628,-90.182,2481
Emerald,Wisconsin,WI,US,45.0833,-92.2579,114
Schofield,Wisconsin,WI,US,44.915,-89.6153,2186
Menasha,Wisconsin,WI,US,44.2125,-88.4271,17748
Elmwood,Wisconsin,WI,US,44.7799,-92.1491,808
Arkansaw,Wisconsin,WI,US,44.6334,-92.0222,200
Summit Lake,Wisconsin,WI,US,45.3759,-89.2045,163
Fenwood,Wisconsin,WI,US,44.8658,-90.0146,154
Waupun,Wisconsin,WI,US,43.6315,-88.7379,11302
Babcock,Wisconsin,WI,US,44.3044,-90.1076,78
Mequon,Wisconsin,WI,US,43.2352,-87.9838,24159
Embarrass,Wisconsin,WI,US,44.6684,-88.7037,380
De Pere,Wisconsin,WI,US,44.4313,-88.0793,25034
Waterloo,Wisconsin,WI,US,43.1835,-88.99,3061
Nelsonville,Wisconsin,WI,US,44.4937,-89.3091,154
Biron,Wisconsin,WI,US,44.4281,-89.766,787
Kendall,Wisconsin,WI,US,43.7926,-90.3677,470
Markesan,Wisconsin,WI,US,43.7099,-88.9907,1408
Pewaukee,Wisconsin,WI,US,43.0701,-88.2411,14476
Sharon,Wisconsin,WI,US,42.5048,-88.7395,1576
Bayfield,Wisconsin,WI,US,46.8141,-90.8226,473
Granton,Wisconsin,WI,US,44.5887,-90.4615,349
Evansville,Wisconsin,WI,US,42.7781,-89.2967,6033
Townsend,Wisconsin,WI,US,45.3242,-88.5903,90
Hartland,Wisconsin,WI,US,43.1027,-88.34,9279
Neenah,Wisconsin,WI,US,44.167,-88.4763,25951
Walworth,Wisconsin,WI,US,42.5305,-88.594,4427
Lublin,Wisconsin,WI,US,45.0749,-90.7238,113
Jim Falls,Wisconsin,WI,US,45.0472,-91.2712,282
Quemado,Texas,TX,US,28.947,-100.6237,160
Francis Creek,Wisconsin,WI,US,44.2005,-87.7208,647
Woodford,Wisconsin,WI,US,42.6476,-89.8598,52
Roberts,Wisconsin,WI,US,44.9732,-92.5505,1804
Clear Lake,Wisconsin,WI,US,45.2492,-92.2675,1070
Cecil,Wisconsin,WI,US,44.8108,-88.4485,552
Lake Wissota,Wisconsin,WI,US,44.922,-91.3015,2799
Prairie du Chien,Wisconsin,WI,US,43.0434,-91.1383,6571
Dallas,Wisconsin,WI,US,45.2591,-91.8142,385
Pulaski,Wisconsin,WI,US,44.6684,-88.2353,3398
Powers Lake,Wisconsin,WI,US,42.5395,-88.2935,1069
Alma Center,Wisconsin,WI,US,44.437,-90.9128,492
Lac du Flambeau,Wisconsin,WI,US,45.9696,-89.8995,1725
Little Round Lake,Wisconsin,WI,US,45.9697,-91.3671,1338
Pigeon Falls,Wisconsin,WI,US,44.4246,-91.2082,406
Cedarburg,Wisconsin,WI,US,43.2991,-87.9887,11465
Shawano,Wisconsin,WI,US,44.7749,-88.5844,10158
Gilman,Wisconsin,WI,US,45.1661,-90.8072,394
Fall Creek,Wisconsin,WI,US,44.7639,-91.2783,1309
Durand,Wisconsin,WI,US,44.627,-91.9607,1820
Chief Lake,Wisconsin,WI,US,45.9213,-91.3312,539
Dodge,Wisconsin,WI,US,44.1345,-91.5485,134
Marshfield,Wisconsin,WI,US,44.6627,-90.1728,18697
Stoughton,Wisconsin,WI,US,42.9236,-89.2219,13088
Gillett,Wisconsin,WI,US,44.8897,-88.3063,1321
Wyocena,Wisconsin,WI,US,43.4931,-89.3098,744
Denmark,Wisconsin,WI,US,44.3492,-87.8313,2253
Glendale,Wisconsin,WI,US,43.1288,-87.9277,12728
Birchwood,Wisconsin,WI,US,45.6577,-91.5507,430
Waukau,Wisconsin,WI,US,43.9862,-88.7706,280
Oconomowoc,Wisconsin,WI,US,43.0994,-88.4951,16717
Sister Bay,Wisconsin,WI,US,45.1835,-87.1271,915
Lake Nebagamon,Wisconsin,WI,US,46.512,-91.6995,1052
Melrose,Wisconsin,WI,US,44.1316,-90.9969,486
St. Nazianz,Wisconsin,WI,US,44.0067,-87.9246,755
Montfort,Wisconsin,WI,US,42.9697,-90.433,697
Bristol,Wisconsin,WI,US,42.5378,-88.0149,5034
Highland,Wisconsin,WI,US,43.0475,-90.3801,835
Lake Wisconsin,Wisconsin,WI,US,43.3782,-89.5763,4363
Ellsworth,Wisconsin,WI,US,44.7364,-92.4806,2825
Hawkins,Wisconsin,WI,US,45.5114,-90.7148,285
Richfield,Wisconsin,WI,US,43.2372,-88.2413,11696
Orfordville,Wisconsin,WI,US,42.6294,-89.2572,1489
Footville,Wisconsin,WI,US,42.6715,-89.2084,810
Plain,Wisconsin,WI,US,43.2779,-90.0423,773
Cashton,Wisconsin,WI,US,43.7413,-90.7866,1103
Waunakee,Wisconsin,WI,US,43.1833,-89.4433,13755
Mayville,Wisconsin,WI,US,43.4986,-88.5475,4878
Combined Locks,Wisconsin,WI,US,44.2642,-88.3064,3588
Bayside,Wisconsin,WI,US,43.1827,-87.9017,4377
Neshkoro,Wisconsin,WI,US,43.9652,-89.2157,427
Unity,Wisconsin,WI,US,44.8511,-90.3131,335
Windsor,Wisconsin,WI,US,43.2406,-89.2952,7057
Grafton,Wisconsin,WI,US,43.3204,-87.9481,11643
Baraboo,Wisconsin,WI,US,43.4697,-89.7378,13891
Ridgeway,Wisconsin,WI,US,42.9985,-89.993,636
Bloomfield,Wisconsin,WI,US,42.5488,-88.352,4706
Onalaska,Wisconsin,WI,US,43.888,-91.2074,18712
Almena,Wisconsin,WI,US,45.4149,-92.0384,651
Odanah,Wisconsin,WI,US,46.6121,-90.6992,0
Slinger,Wisconsin,WI,US,43.3317,-88.2799,5427
Fairwater,Wisconsin,WI,US,43.7424,-88.868,359
Lake Camelot,Wisconsin,WI,US,44.2147,-89.7623,683
Belgium,Wisconsin,WI,US,43.5019,-87.8476,2301
Houlton,Wisconsin,WI,US,45.0607,-92.7904,135
Tennyson,Wisconsin,WI,US,42.6907,-90.6868,342
Ladysmith,Wisconsin,WI,US,45.4606,-91.0972,3185
Cedar Grove,Wisconsin,WI,US,43.5681,-87.8243,2108
Leopolis,Wisconsin,WI,US,44.7654,-88.8447,86
Woodville,Wisconsin,WI,US,44.9483,-92.2851,1353
Lake Lorraine,Wisconsin,WI,US,42.733,-88.7374,230
Cleveland,Wisconsin,WI,US,43.9177,-87.7469,1461
Union Center,Wisconsin,WI,US,43.6826,-90.2634,193
Gibbsville,Wisconsin,WI,US,43.6521,-87.8317,489
Black Creek,Wisconsin,WI,US,44.4741,-88.4507,1318
Twin Lakes,Wisconsin,WI,US,42.5192,-88.2489,6064
South Wayne,Wisconsin,WI,US,42.5671,-89.8763,478
Mukwonago,Wisconsin,WI,US,42.8566,-88.3269,21882
Thiensville,Wisconsin,WI,US,43.2361,-87.9784,3146
Stratford,Wisconsin,WI,US,44.8009,-90.0722,1579
Neosho,Wisconsin,WI,US,43.3101,-88.5193,558
Amherst Junction,Wisconsin,WI,US,44.4687,-89.3168,378
Kingston,Wisconsin,WI,US,43.6935,-89.1304,319
Weston,Wisconsin,WI,US,44.8906,-89.5487,15167
Park Ridge,Wisconsin,WI,US,44.52,-89.5463,497
Palmyra,Wisconsin,WI,US,42.8811,-88.6,1769
Dresser,Wisconsin,WI,US,45.3617,-92.6344,859
Humbird,Wisconsin,WI,US,44.5295,-90.8862,248
Kronenwetter,Wisconsin,WI,US,44.8164,-89.5807,7736
Bonduel,Wisconsin,WI,US,44.7383,-88.4476,1427
Whittlesey,Wisconsin,WI,US,45.2206,-90.3232,121
Polonia,Wisconsin,WI,US,44.5756,-89.4118,499
Lake Koshkonong,Wisconsin,WI,US,42.8838,-88.9424,1264
Westfield,Wisconsin,WI,US,43.8851,-89.4926,1245
Arbovale,West Virginia,WV,US,38.4353,-79.8116,137
Bruno,West Virginia,WV,US,37.688,-81.8737,1404
Summersville,West Virginia,WV,US,38.2865,-80.841,3169
Aurora,West Virginia,WV,US,39.3254,-79.5546,205
Oceana,West Virginia,WV,US,37.6927,-81.6324,2362
Pinch,West Virginia,WV,US,38.4062,-81.481,2697
Roderfield,West Virginia,WV,US,37.4501,-81.7029,38
Poca,West Virginia,WV,US,38.473,-81.8124,987
Berwind,West Virginia,WV,US,37.266,-81.6633,517
Philippi,West Virginia,WV,US,39.1487,-80.0417,3076
Pineville,West Virginia,WV,US,37.5845,-81.5354,599
Wellsburg,West Virginia,WV,US,40.2811,-80.6102,2589
Maybeury,West Virginia,WV,US,37.3675,-81.3572,90
Murchison,Texas,TX,US,32.275,-95.7561,599
Farmington,West Virginia,WV,US,39.5119,-80.2514,369
Middleway,West Virginia,WV,US,39.3032,-77.981,567
Shannondale,West Virginia,WV,US,39.2123,-77.8105,3514
Welch,West Virginia,WV,US,37.4455,-81.5721,2240
Williamstown,West Virginia,WV,US,39.4,-81.4527,2906
Hamlin,West Virginia,WV,US,38.2805,-82.1086,1072
North Hills,West Virginia,WV,US,39.3149,-81.5086,793
Follansbee,West Virginia,WV,US,40.3385,-80.5975,2765
West Milford,West Virginia,WV,US,39.2044,-80.4034,609
Granville,West Virginia,WV,US,39.6471,-79.9974,2560
Hillsboro,West Virginia,WV,US,38.1353,-80.2136,243
Elizabeth,West Virginia,WV,US,39.0617,-81.3976,827
Hambleton,West Virginia,WV,US,39.0814,-79.6455,217
Kenova,West Virginia,WV,US,38.4026,-82.5821,3007
West Union,West Virginia,WV,US,39.2963,-80.7751,833
Triadelphia,West Virginia,WV,US,40.0483,-80.6229,759
Middlebourne,West Virginia,WV,US,39.4947,-80.907,766
Fairmont,West Virginia,WV,US,39.4768,-80.1491,32988
West Logan,West Virginia,WV,US,37.8679,-81.9906,372
Mason,West Virginia,WV,US,39.0183,-82.0314,944
Rhodell,West Virginia,WV,US,37.6095,-81.305,162
Inwood,West Virginia,WV,US,39.3538,-78.0552,2999
Smithfield,West Virginia,WV,US,39.5011,-80.5554,152
Salt Rock,West Virginia,WV,US,38.3243,-82.2172,553
Jane Lew,West Virginia,WV,US,39.11,-80.4085,392
Rand,West Virginia,WV,US,38.2817,-81.5654,1533
Chattaroy,West Virginia,WV,US,37.7062,-82.2737,583
Greenview,West Virginia,WV,US,37.9963,-81.8202,432
Harrisville,West Virginia,WV,US,39.2104,-81.0485,1740
Danville,West Virginia,WV,US,38.0808,-81.8342,629
Mannington,West Virginia,WV,US,39.5274,-80.3408,2043
Princeton,West Virginia,WV,US,37.3688,-81.0961,5822
Gilbert Creek,West Virginia,WV,US,37.5697,-81.8906,1119
Tunnelton,West Virginia,WV,US,39.3929,-79.7466,298
Dailey,West Virginia,WV,US,38.7968,-79.8967,86
Enterprise,West Virginia,WV,US,39.4197,-80.2834,802
Red Jacket,West Virginia,WV,US,37.6488,-82.1317,415
Shrewsbury,West Virginia,WV,US,38.2079,-81.4672,801
Falling Waters,West Virginia,WV,US,39.5637,-77.8874,1418
Pickens,West Virginia,WV,US,38.6558,-80.216,22
Scarbro,West Virginia,WV,US,37.9504,-81.1666,636
Bluefield,West Virginia,WV,US,37.2608,-81.2143,41653
Chesapeake,West Virginia,WV,US,38.2233,-81.5363,1456
Belington,West Virginia,WV,US,39.022,-79.9383,1864
Beards Fork,West Virginia,WV,US,38.0645,-81.2278,160
Burnsville,West Virginia,WV,US,38.8579,-80.6539,490
Mabscott,West Virginia,WV,US,37.7694,-81.2133,1298
Prince,West Virginia,WV,US,37.8593,-81.0722,81
Winfield,West Virginia,WV,US,38.5285,-81.8861,2359
Peterstown,West Virginia,WV,US,37.3991,-80.795,636
St. George,West Virginia,WV,US,39.1662,-79.6987,116
Apple Grove,West Virginia,WV,US,38.6663,-82.1707,35
Whitesville,West Virginia,WV,US,37.9825,-81.5366,451
Brandonville,West Virginia,WV,US,39.6671,-79.6277,105
Union,West Virginia,WV,US,37.5905,-80.5419,550
Moorefield,West Virginia,WV,US,39.0674,-78.9624,2612
Tioga,West Virginia,WV,US,38.422,-80.6548,7
Grant Town,West Virginia,WV,US,39.559,-80.1772,601
Belle,West Virginia,WV,US,38.2337,-81.5387,1162
Matewan,West Virginia,WV,US,37.6259,-82.17,442
Bruceton Mills,West Virginia,WV,US,39.6594,-79.6406,86
Omar,West Virginia,WV,US,37.7583,-81.9975,286
Glenville,West Virginia,WV,US,38.9379,-80.8339,3273
Wardensville,West Virginia,WV,US,39.0768,-78.5932,261
Spencer,West Virginia,WV,US,38.8025,-81.3531,2714
Cross Lanes,West Virginia,WV,US,38.4351,-81.7706,9835
Lubeck,West Virginia,WV,US,39.2276,-81.6265,1352
Wiley Ford,West Virginia,WV,US,39.6151,-78.7615,842
Gassaway,West Virginia,WV,US,38.6702,-80.7717,873
Barrackville,West Virginia,WV,US,39.5013,-80.1696,1299
Keyser,West Virginia,WV,US,39.4394,-78.9822,6571
Brandywine,West Virginia,WV,US,38.6219,-79.2413,110
Womelsdorf,West Virginia,WV,US,38.8981,-79.9636,242
Verdunville,West Virginia,WV,US,37.8532,-82.0603,565
New Haven,West Virginia,WV,US,38.9876,-81.9655,1499
Bolt,West Virginia,WV,US,37.7623,-81.4189,637
Wolf Summit,West Virginia,WV,US,39.2822,-80.462,128
Bath,West Virginia,WV,US,39.6247,-78.2275,602
War,West Virginia,WV,US,37.304,-81.6802,715
Helvetia,West Virginia,WV,US,38.7058,-80.1993,94
Hartford City,West Virginia,WV,US,38.9978,-81.9905,595
Mount Hope,West Virginia,WV,US,37.8987,-81.1745,1310
Beech Bottom,West Virginia,WV,US,40.2181,-80.6588,482
Deep Water,West Virginia,WV,US,38.1217,-81.2528,310
Boomer,West Virginia,WV,US,38.1516,-81.2825,790
Burlington,West Virginia,WV,US,39.337,-78.9223,147
Mullens,West Virginia,WV,US,37.5811,-81.3855,1369
Gallipolis Ferry,West Virginia,WV,US,38.7745,-82.2041,833
Rowlesburg,West Virginia,WV,US,39.3482,-79.6764,577
Carpendale,West Virginia,WV,US,39.6278,-78.7896,928
Kingwood,West Virginia,WV,US,39.4719,-79.6822,3190
Ellenboro,West Virginia,WV,US,39.2678,-81.0551,356
Sissonville,West Virginia,WV,US,38.5042,-81.6398,4617
Franklin,West Virginia,WV,US,38.6452,-79.3331,652
Durbin,West Virginia,WV,US,38.5471,-79.8278,294
Switzer,West Virginia,WV,US,37.7879,-81.9865,533
Big Sandy,West Virginia,WV,US,37.4608,-81.705,200
Athens,West Virginia,WV,US,37.423,-81.0148,921
New Richmond,West Virginia,WV,US,37.5735,-81.487,356
Handley,West Virginia,WV,US,38.1863,-81.3673,325
Glen Fork,West Virginia,WV,US,37.6982,-81.5362,364
Hinton,West Virginia,WV,US,37.6652,-80.8828,2410
Albright,West Virginia,WV,US,39.4937,-79.6399,282
Carolina,West Virginia,WV,US,39.4795,-80.2728,459
Paden City,West Virginia,WV,US,39.6035,-80.9351,2468
Iaeger,West Virginia,WV,US,37.4642,-81.8111,255
Springfield,West Virginia,WV,US,39.4449,-78.6977,329
Kopperston,West Virginia,WV,US,37.7502,-81.5764,488
Bartow,West Virginia,WV,US,38.5422,-79.7859,12
White Sulphur Springs,West Virginia,WV,US,37.7981,-80.3003,2648
Man,West Virginia,WV,US,37.7521,-81.8922,664
Alderson,West Virginia,WV,US,37.7277,-80.6436,2567
Hilltop,West Virginia,WV,US,37.9392,-81.1527,591
Comfort,West Virginia,WV,US,38.1317,-81.6102,259
Elk Garden,West Virginia,WV,US,39.3862,-79.1556,220
Wallace,West Virginia,WV,US,39.4072,-80.4911,352
Nettie,West Virginia,WV,US,38.2183,-80.6889,690
Twilight,West Virginia,WV,US,37.9252,-81.6177,55
Grantsville,West Virginia,WV,US,38.9204,-81.0934,531
Cairo,West Virginia,WV,US,39.2067,-81.1544,262
Bradley,West Virginia,WV,US,37.8675,-81.2046,1801
Monaville,West Virginia,WV,US,37.8136,-81.9915,190
Blacksville,West Virginia,WV,US,39.7175,-80.2146,180
Ripley,West Virginia,WV,US,38.8201,-81.7091,4166
Clendenin,West Virginia,WV,US,38.4859,-81.3503,1142
Thurmond,West Virginia,WV,US,37.961,-81.0796,5
Charleston,West Virginia,WV,US,38.3484,-81.6323,142858
Bradshaw,West Virginia,WV,US,37.3534,-81.8012,286
Flemington,West Virginia,WV,US,39.2666,-80.1286,312
Holden,West Virginia,WV,US,37.8238,-82.0788,664
Gauley Bridge,West Virginia,WV,US,38.1681,-81.2039,570
Milton,West Virginia,WV,US,38.4353,-82.1376,2612
Cowen,West Virginia,WV,US,38.411,-80.5542,482
Vienna,West Virginia,WV,US,39.3238,-81.5383,10370
Sophia,West Virginia,WV,US,37.7116,-81.2524,1274
Capon Bridge,West Virginia,WV,US,39.2998,-78.4337,371
Prosperity,West Virginia,WV,US,37.8384,-81.1987,1409
Martinsburg,West Virginia,WV,US,39.4582,-77.9776,17404
Tornado,West Virginia,WV,US,38.3369,-81.8551,1211
Hometown,West Virginia,WV,US,38.5288,-81.8552,540
Mount Gay-Shamrock,West Virginia,WV,US,37.8512,-82.0229,1241
Madison,West Virginia,WV,US,38.0632,-81.8046,4169
St. Albans,West Virginia,WV,US,38.3769,-81.8198,10265
Shinnston,West Virginia,WV,US,39.3923,-80.2989,2129
Fairview,West Virginia,WV,US,39.5927,-80.2469,408
Sand Fork,West Virginia,WV,US,38.9154,-80.7477,151
Kermit,West Virginia,WV,US,37.8425,-82.4086,364
Page,West Virginia,WV,US,38.0506,-81.2717,72
Mill Creek,West Virginia,WV,US,38.7319,-79.9725,696
Falling Spring,West Virginia,WV,US,37.9926,-80.3576,207
Bayard,West Virginia,WV,US,39.2711,-79.3662,269
Westover,West Virginia,WV,US,39.6324,-79.9773,4182
Boaz,West Virginia,WV,US,39.3674,-81.4853,1589
Masontown,West Virginia,WV,US,39.5512,-79.8003,544
Benwood,West Virginia,WV,US,40.0139,-80.7328,1307
Washington,West Virginia,WV,US,39.2422,-81.6679,849
Beaver,West Virginia,WV,US,37.7356,-81.15,958
Pax,West Virginia,WV,US,37.9097,-81.2648,157
New Martinsville,West Virginia,WV,US,39.6636,-80.8569,5876
Stanaford,West Virginia,WV,US,37.8156,-81.1492,1379
Jefferson,West Virginia,WV,US,38.3701,-81.7708,665
Rainelle,West Virginia,WV,US,37.9678,-80.7717,1482
Kimberly,West Virginia,WV,US,38.1407,-81.2967,148
Helen,West Virginia,WV,US,37.6374,-81.313,0
Justice,West Virginia,WV,US,37.5992,-81.8381,469
Moundsville,West Virginia,WV,US,39.9221,-80.7422,8494
MacArthur,West Virginia,WV,US,37.7553,-81.2078,1700
Fairlea,West Virginia,WV,US,37.7756,-80.4582,1743
Clay,West Virginia,WV,US,38.4662,-81.0814,456
Beverly,West Virginia,WV,US,38.8442,-79.8717,675
Sutton,West Virginia,WV,US,38.6663,-80.7116,988
Dunbar,West Virginia,WV,US,38.3688,-81.7345,7338
Reedsville,West Virginia,WV,US,39.5102,-79.8006,598
Vivian,West Virginia,WV,US,37.4172,-81.4923,76
Oakvale,West Virginia,WV,US,37.3323,-80.9704,116
Pullman,West Virginia,WV,US,39.188,-80.949,140
Lost Creek,West Virginia,WV,US,39.1627,-80.3484,474
Matheny,West Virginia,WV,US,37.664,-81.5985,334
Raysal,West Virginia,WV,US,37.3367,-81.7712,381
Mallory,West Virginia,WV,US,37.7274,-81.8206,1142
Salem,West Virginia,WV,US,39.2849,-80.5645,1492
Flatwoods,West Virginia,WV,US,38.7186,-80.654,270
Pea Ridge,West Virginia,WV,US,38.4154,-82.3188,6345
Parsons,West Virginia,WV,US,39.0942,-79.6786,1415
Glen Dale,West Virginia,WV,US,39.9466,-80.7564,1413
Crumpler,West Virginia,WV,US,37.4262,-81.3313,148
Cameron,West Virginia,WV,US,39.828,-80.5693,871
Gary,West Virginia,WV,US,37.3621,-81.5408,827
Lesage,West Virginia,WV,US,38.487,-82.293,1090
Waverly,West Virginia,WV,US,39.3328,-81.3813,340
Reader,West Virginia,WV,US,39.5689,-80.7316,422
Marlinton,West Virginia,WV,US,38.2247,-80.0906,994
Bridgeport,West Virginia,WV,US,39.3036,-80.2477,8635
Beckley,West Virginia,WV,US,37.7877,-81.184,59629
West Liberty,West Virginia,WV,US,40.1647,-80.5972,1463
Huttonsville,West Virginia,WV,US,38.7138,-79.9766,215
Quinwood,West Virginia,WV,US,38.0586,-80.706,272
Hico,West Virginia,WV,US,38.1166,-81.0112,113
Anawalt,West Virginia,WV,US,37.3364,-81.4407,189
Racine,West Virginia,WV,US,38.1398,-81.6541,192
Idamay,West Virginia,WV,US,39.493,-80.2572,441
Cass,West Virginia,WV,US,38.3962,-79.9191,50
Barboursville,West Virginia,WV,US,38.4061,-82.297,4217
Rossmore,West Virginia,WV,US,37.805,-81.9923,674
Shenandoah Junction,West Virginia,WV,US,39.3531,-77.8375,708
West Hamlin,West Virginia,WV,US,38.2802,-82.194,736
Paw Paw,West Virginia,WV,US,39.5313,-78.4553,491
Valley Bend,West Virginia,WV,US,38.7694,-79.928,635
Petersburg,West Virginia,WV,US,38.9957,-79.1276,2675
Henderson,West Virginia,WV,US,38.8304,-82.136,263
Piney View,West Virginia,WV,US,37.835,-81.1275,1175
Ranson,West Virginia,WV,US,39.325,-77.8667,5173
Green Bank,West Virginia,WV,US,38.4267,-79.8344,288
Auburn,West Virginia,WV,US,39.0961,-80.8562,90
Logan,West Virginia,WV,US,37.8509,-81.9857,9299
Marmet,West Virginia,WV,US,38.2458,-81.5711,1410
Chapmanville,West Virginia,WV,US,37.9726,-82.0215,1137
Accoville,West Virginia,WV,US,37.7652,-81.827,946
Green Spring,West Virginia,WV,US,39.5241,-78.6302,208
Matoaka,West Virginia,WV,US,37.4182,-81.2417,210
Eleanor,West Virginia,WV,US,38.5374,-81.9256,1598
Powellton,West Virginia,WV,US,38.0941,-81.322,548
Sylvester,West Virginia,WV,US,38.008,-81.5623,142
Pine Grove,West Virginia,WV,US,39.5642,-80.6825,504
Belmont,West Virginia,WV,US,39.3786,-81.2635,876
Ronceverte,West Virginia,WV,US,37.7504,-80.4715,1717
Hundred,West Virginia,WV,US,39.6836,-80.4576,273
Piedmont,West Virginia,WV,US,39.4778,-79.0466,813
Smithers,West Virginia,WV,US,38.1768,-81.3048,754
Newell,West Virginia,WV,US,40.6179,-80.5999,1334
Mitchell Heights,West Virginia,WV,US,37.9088,-81.9867,286
Harman,West Virginia,WV,US,38.9211,-79.5246,138
Harts,West Virginia,WV,US,38.0343,-82.129,718
Bartley,West Virginia,WV,US,37.3373,-81.7334,122
Pennsboro,West Virginia,WV,US,39.2874,-80.9754,1045
Valley Grove,West Virginia,WV,US,40.0901,-80.569,357
Chester,West Virginia,WV,US,40.6129,-80.5627,2448
Coal Fork,West Virginia,WV,US,38.3185,-81.523,1092
Lewisburg,West Virginia,WV,US,37.8096,-80.4327,7099
Thomas,West Virginia,WV,US,39.1458,-79.4958,556
Charles Town,West Virginia,WV,US,39.2745,-77.8632,23806
Big Creek,West Virginia,WV,US,38.0054,-82.0361,361
Wayne,West Virginia,WV,US,38.2234,-82.4428,1408
South Charleston,West Virginia,WV,US,38.3482,-81.711,12493
Anmoore,West Virginia,WV,US,39.2611,-80.2862,749
Brenton,West Virginia,WV,US,37.6004,-81.635,284
Glen Ferris,West Virginia,WV,US,38.1518,-81.2185,151
Wheeling,West Virginia,WV,US,40.0751,-80.6951,77206
Harpers Ferry,West Virginia,WV,US,39.3251,-77.7409,281
Bethlehem,West Virginia,WV,US,40.0451,-80.6899,2359
Eccles,West Virginia,WV,US,37.7817,-81.2648,76
Bethany,West Virginia,WV,US,40.2053,-80.5629,888
Meadow Bridge,West Virginia,WV,US,37.8613,-80.8561,352
Lashmeet,West Virginia,WV,US,37.4228,-81.1967,457
Pleasant Valley,West Virginia,WV,US,39.4505,-80.1552,3164
Glen White,West Virginia,WV,US,37.73,-81.2797,284
Mount Carbon,West Virginia,WV,US,38.1443,-81.289,448
Leon,West Virginia,WV,US,38.7471,-81.9555,150
Newburg,West Virginia,WV,US,39.3889,-79.8536,319
Bolivar,West Virginia,WV,US,39.3242,-77.7517,1031
Morgantown,West Virginia,WV,US,39.6379,-79.9468,72453
Henlawson,West Virginia,WV,US,37.9,-81.982,205
Century,West Virginia,WV,US,39.1004,-80.1883,164
Kistler,West Virginia,WV,US,37.7656,-81.8578,320
Northfork,West Virginia,WV,US,37.4196,-81.4274,356
Cucumber,West Virginia,WV,US,37.2786,-81.6241,75
Teays Valley,West Virginia,WV,US,38.4482,-81.9239,13805
Corinne,West Virginia,WV,US,37.571,-81.3614,265
Lester,West Virginia,WV,US,37.7349,-81.3015,323
Bancroft,West Virginia,WV,US,38.5107,-81.8418,600
Robinette,West Virginia,WV,US,37.7855,-81.7879,503
Clarksburg,West Virginia,WV,US,39.2863,-80.323,41453
Windsor Heights,West Virginia,WV,US,40.1914,-80.6647,390
Glasgow,West Virginia,WV,US,38.2109,-81.4218,860
Buckhannon,West Virginia,WV,US,38.9927,-80.2282,8560
Clearview,West Virginia,WV,US,40.1399,-80.6899,497
Bramwell,West Virginia,WV,US,37.327,-81.3129,346
Cedar Grove,West Virginia,WV,US,38.2223,-81.4379,940
Delbarton,West Virginia,WV,US,37.7052,-82.1861,514
Blennerhassett,West Virginia,WV,US,39.2562,-81.6316,3335
Brookhaven,West Virginia,WV,US,39.6062,-79.8812,5467
Chauncey,West Virginia,WV,US,37.7652,-81.9834,320
Junior,West Virginia,WV,US,38.9783,-79.9506,487
Parcoal,West Virginia,WV,US,38.4604,-80.3731,96
Bluewell,West Virginia,WV,US,37.3144,-81.2581,2378
Whitmer,West Virginia,WV,US,38.8148,-79.5451,12
Lumberport,West Virginia,WV,US,39.3742,-80.3484,848
Rupert,West Virginia,WV,US,37.9649,-80.687,919
East Dailey,West Virginia,WV,US,38.7795,-79.8911,511
Belva,West Virginia,WV,US,38.2327,-81.1894,94
Fayetteville,West Virginia,WV,US,38.0622,-81.1084,2772
Buffalo,West Virginia,WV,US,38.6117,-81.982,1262
Glen Jean,West Virginia,WV,US,37.9271,-81.1532,147
Friendly,West Virginia,WV,US,39.5136,-81.0619,124
Crum,West Virginia,WV,US,37.9095,-82.447,119
Monongah,West Virginia,WV,US,39.4598,-80.2185,1124
Hepzibah,West Virginia,WV,US,39.3309,-80.3341,560
Birch River,West Virginia,WV,US,38.4961,-80.7497,172
Stonewood,West Virginia,WV,US,39.2501,-80.3054,1737
Ghent,West Virginia,WV,US,37.6221,-81.1057,515
Cheat Lake,West Virginia,WV,US,39.6672,-79.8565,9540
Hedgesville,West Virginia,WV,US,39.5544,-77.9944,314
Reedy,West Virginia,WV,US,38.8997,-81.4264,165
Oak Hill,West Virginia,WV,US,37.9844,-81.1277,8338
